lat,lon,city
51.5072759,-0.1276597,London
-41.2870685,174.7810335,Wellington
51.0623551,-1.3140919,Winchester
-26.9113112,-48.6708521,Itajaí
50.9035305,-1.4041996,Southampton
53.7974185,-1.5437941,Leeds
53.3820287,-1.4657174,Sheffield
37.9841493,23.7279843,Αθήνα
33.8498458,-116.5378612,Palm Springs
34.0502836,-118.2420861,Los Angeles
39.2810502,-76.567903,Baltimore
51.3813864,-2.3596963,Bath
46.0544459,14.5046117,Ljubljana
53.1908873,-2.8908955,Chester
50.4120332,4.4436244,Charleroi
34.6735636,33.0423629,Limassol
34.9173073,33.6373765,Larnaca
52.6367811,-1.1312289,Leicester
53.2343427,-0.5370209,Lincoln
55.861147,-4.2499891,Glasgow
52.6285753,1.292222,Norwich
51.7521553,-1.2582135,Oxford
55.6867239,12.570069,København
-33.8548157,151.2164539,Sydney
14.6801169,121.0599706,Quezon City
51.4580216,-0.9673727,Reading
56.0441984,12.7040684,Helsingborg
51.2084734,-2.6517961,Wells
51.5677333,-1.796741,Swindon
18.9387038,72.8353711,Mumbai मुंबई
28.6092825,77.2173711,New Delhi (नई दिल्ली)
18.5205417,73.8545579,Pune (पुणे)
33.6946934,73.0629505,Islamabad
31.5621916,74.3228517,Lahore
34.1420882,-118.25057,Glendale
34.1134446,-118.1477834,South Pasadena
34.0930855,-118.1279002,Alhambra
34.1438396,-118.1290095,Pasadena
34.1819538,-118.3079649,Burbank
-31.912864,152.4608481,Taree
49.598038,11.0037436,Erlangen
48.2084672,16.3730907,Wien
51.0621881,3.7102089,Gent
50.8465142,4.351733,Bruxelles - Brussel
51.2082896,3.2260109,Brugge
46.0762962,18.228147,Pécs
50.8065249,-1.0744016,Portsmouth
48.1372719,11.5754815,München
48.8564528,2.3524282,Paris
51.8629188,-2.2466485,Gloucester
50.720157,-1.8747048,Bournemouth
50.7152124,-1.9832693,Poole
52.4080477,-1.5113334,Coventry
52.4813679,-1.8980726,Birmingham
55.9483399,-3.1932723,Edinburgh
51.2800275,1.0802533,Canterbury
52.0580055,1.1528082,Ipswich
52.5738875,-0.2416701,Peterborough
50.3712779,-4.1424595,Plymouth
50.7256471,-3.5266611,Exeter
43.6529206,-79.3849008,Toronto
52.1527898,9.9523243,Hildesheim
46.9480572,7.4513003,Bern
45.4210328,-75.6900219,Ottawa
41.4877262,-81.677522,Cleveland
41.6786754,-83.5127283,Toledo
42.3316454,-83.0466755,Detroit
43.254646,-79.8677199,Hamilton
43.3842987,-80.3098064,Cambridge
46.511678,-84.3161911,Sault Sainte Marie
48.4170494,-89.2419946,Thunder Bay
44.5299412,-88.0248317,Green Bay
-27.5648552,151.9542619,Toowoomba
52.0429797,-0.7589607,Milton Keynes
45.7575958,4.8323239,Lyon
50.8322608,12.9252977,Chemnitz
53.5503414,10.000654,Hamburg
57.7208224,12.944163,Borås
4.174718,73.5101438,Male
69.6669865,18.9517904,Tromsø
54.9770924,-1.6142059,Newcastle upon Tyne
53.9593817,-1.0814175,York
-34.4242854,150.8938903,Wollongong
50.8790366,4.7014682,Leuven
54.900404,-2.9311426,Carlisle
50.9412323,6.9569468,Köln
54.9063791,-1.375053,Sunderland
52.2033051,0.124862,Cambridge
52.1918253,-2.2216087,Worcester
58.4098139,15.6245221,Linköping
59.9132694,10.7391111,Oslo
53.0758099,8.80717,Bremen
52.2385239,-0.902493,Northampton
47.0708101,15.4382916,Graz
51.7345403,0.4723823,Chelmsford
53.6825669,-1.5000466,Wakefield
33.3024251,44.378799,بغداد
55.4662752,8.4524371,Esbjerg
57.4790124,-4.225739,Inverness
57.1452452,-2.0913745,Aberdeen
51.6211442,-3.9467751,Swansea
40.4167047,-3.7035825,Madrid
56.1181242,-3.9360012,Stirling
54.7763893,-1.5758691,Durham
34.0613912,-118.1311823,Monterey Park
33.8367029,-117.9049338,Anaheim
33.7753566,-117.9434331,Garden Grove
33.7557699,-117.98318,Westminster
60.394973,5.3269603,Bergen
56.4593653,-2.9735213,Dundee
52.0553813,-2.7151735,Hereford
49.1959062,16.6097834,Brno
51.5377786,7.2196765,Herne
38.353738,-0.4901846,Alicante
52.3998399,0.2631161,Ely
53.2277187,-4.1268822,Bangor
53.4054719,-2.9805393,Liverpool
53.7589938,-2.7051618,Preston
21.304547,-157.8556764,Honolulu
19.7067972,-155.0813821,Hilo
-27.6160135,152.76087,Ipswich
51.0733411,-1.7942401,Salisbury
51.8931303,0.9046293,Colchester
44.1618763,-77.3868022,Belleville
44.3787033,-79.7030516,Barrie
42.9922801,-82.3800093,Sarnia
44.2876446,-78.3272997,Peterborough
49.9427202,11.5763079,Bayreuth
61.4867236,21.7910016,Pori
-35.2820708,149.1286673,Canberra
-31.4493064,152.9076853,Port Macquarie
34.5197058,69.1624302,Kabul کابل
37.8844099,-4.7794976,Córdoba
36.7210805,-4.421041,Málaga
60.4517531,22.2670522,Turku
52.9212617,-1.4761491,Derby
53.6288297,11.4148038,Schwerin
22.3170491,114.1771532,九龍 Kowloon
54.3216753,10.1371858,Kiel
52.9533834,-1.1487384,Nottingham
44.6492936,-63.5760291,Halifax
41.5514024,-8.4230533,Braga
39.0490111,-95.6775557,Topeka
48.3058789,14.2865628,Linz
39.9064705,116.3911947,北京市 (Beijing)
38.5245129,-8.8933165,Setúbal
39.2358549,-8.6875558,Santarém
38.6593519,-27.2195486,Angra do Heroismo
32.6475146,-16.9099496,Funchal
40.5784406,-8.4435728,Águeda
41.5314496,-8.6192306,Barcelos
37.7463058,-25.6668573,Ponta Delgada
51.5113709,7.4651736,Dortmund
52.3744809,9.7385632,Hannover
53.8664436,10.6847384,Lübeck
51.7492955,-0.3422525,St Albans
55.678016,12.5326186,Frederiksberg
47.4990004,8.7288075,Winterthur
-33.9434595,25.5327401,Port Elizabeth
52.5847651,-2.127567,Wolverhampton
49.5954189,17.2473483,Olomouc
54.0924328,12.1287241,Rostock
-25.7249999,28.1847222,Pretoria
56.8812412,14.8026802,Växjö
47.6589856,9.1751732,Konstanz
49.2485559,7.3645551,Zweibrücken
49.892691,10.8876283,Bamberg
55.7461951,12.5498172,Gentofte
40.2114939,-8.4292178,Coimbra
41.1485925,-8.6110201,Porto
13.1376189,123.734311,Legaspi
46.1759065,21.3187686,Arad
33.596439,-7.6179071,Casablanca الدار البيضاء
59.8594126,17.64112,Uppsala
49.79245,9.9329662,Würzburg
32.8880175,-6.9135498,Khouribga خريبكة
51.4504762,6.6352091,Moers
-32.9272881,151.7812534,Newcastle
-35.7072183,150.178289,Batemans Bay
-34.8741198,150.6004709,Nowra
39.9272322,32.8519769,Ankara
41.6754295,26.5594879,Edirne
40.1500808,26.4148869,Çanakkale
41.7370223,27.2235523,Kırklareli
40.9800799,27.509836,Tekirdağ
39.6451957,27.8918468,Balıkesir
37.842494,27.8347381,Aydın
37.2167519,28.3629455,Muğla
40.7842005,30.4053578,Adapazarı
38.7579642,30.5346872,Afyonkarahisar
40.1435101,29.9752911,Bilecik
40.7360624,31.60712,Bolu
37.7248394,30.2887286,Burdur
40.1837982,29.063278,Bursa
37.7725246,29.0838956,Denizli
40.84998,31.1584298,Düzce
39.7688617,30.5216389,Eskişehir
40.8324171,29.8674171,Kocaeli
37.8721123,32.4840399,Konya
39.4207301,29.9809917,Kütahya
38.6155029,27.4255716,Manisa
38.6810732,29.4033271,Uşak
40.6556669,29.2729091,Yalova
46.356324,17.7886957,Kaposvár
59.3307611,18.0613098,Stockholm
57.7064072,11.9686291,Göteborg
35.6884244,51.4179604,تهران
60.2241869,24.6603627,Espoo
59.3799136,13.5029449,Karlstad
-30.2962407,153.1135293,Coffs Harbour
-29.6912217,152.9337861,Grafton
-28.8634654,153.5619701,Ballina
51.389062,0.5049347,Rochester
49.2234851,18.7392683,Žilina
48.8923583,18.0393715,Trenčín
49.0004114,21.2522733,Prešov
48.3772086,17.5865242,Trnava
48.7384028,19.1573494,Banská Bystrica
32.6705341,51.6651161,اصفهان
36.298192,59.6048042,مشهد
38.0775595,46.2868574,تبريز
-37.814255,144.963146,Melbourne
36.2804074,50.006663,قزوين
34.6422905,50.8779218,قم
29.6130192,52.532674,شیراز
31.3247276,48.6822509,اهواز
40.2663107,-76.8861122,Harrisburg
50.4499799,30.5235008,Київ
51.4997394,31.2866057,Чернігів
46.4713468,30.7296333,Одеса
49.8418918,24.0315335,Львів
52.4368343,30.9743404,Гомель
53.9022531,27.5618628,Минск
54.5122662,30.4244632,Орша
43.08872,-79.0837,Niagara Falls, Ontario
50.087656,14.4212126,Praha
46.5446738,24.5612424,Târgu Mureș
50.7344839,7.0999274,Bonn
23.1379911,-82.3658562,Ciudad de La Habana
37.5491616,45.0677367,ارومیه
37.006164,-121.563321,Gilroy
-26.1563889,27.8858333,Roodepoort
54.3482114,18.6542829,Gdańsk
54.5164982,18.5402738,Gdynia
-26.2294444,28.1805556,Germiston
-26.2125,28.2625,Boksburg
27.1781213,56.2766447,بندر عباس
27.9537102,57.7116786,کهنوج
36.9970414,35.3267707,Adana
37.574898,43.73766,Hakkâri
38.4992518,43.3966821,Van
39.9215462,44.0467885,Iğdır
36.2019598,36.1620594,Antakya
37.5872473,36.9254392,Kahramanmaraş
36.81275,34.630542,Mersin
37.073671,36.255941,Osmaniye
38.370254,34.0292392,Aksaray
40.59866,33.616701,Çankırı
37.1792447,33.2224781,Karaman
38.7253231,35.4836107,Kayseri
39.847147,33.5169348,Kırıkkale
39.1443024,34.1679955,Kırşehir
38.6223688,34.7136022,Nevşehir
37.9712079,34.6775534,Niğde
39.749781,37.013697,Sivas
39.8205571,34.8094917,Yozgat
40.6502007,35.8338214,Amasya
41.1831962,41.8278892,Artvin
41.6338394,32.3384354,Bartın
40.25569,40.224099,Bayburt
40.5491496,34.9602453,Çorum
40.9148702,38.3879289,Giresun
40.460889,39.483349,Gümüşhane
41.1974459,32.6218583,Karabük
41.377974,33.776791,Kastamonu
40.980531,37.883907,Ordu
41.022809,40.519612,Rize
41.2893535,36.3258984,Samsun
42.0258451,35.148063,Sinop
40.32648,36.55403,Tokat
41.4523739,31.7884026,Zonguldak
39.7201318,43.0500388,Ağrı
41.1140869,42.7020768,Ardahan
38.8887541,40.4983659,Bingöl
38.4001725,42.1086262,Bitlis
38.676303,39.221849,Elazığ
38.747307,41.504412,Muş
39.7496052,39.4941023,Erzincan
39.9082459,41.2758755,Erzurum
40.6051586,43.0961703,Kars
38.350261,38.309269,Malatya
39.1080631,39.548197,Tunceli
37.7640008,38.2764355,Adıyaman
37.8830001,41.1309008,Batman
37.9115543,40.2276235,Diyarbakır
37.0598399,37.3796664,Gaziantep
36.7180419,37.1168827,Kilis
37.3140469,40.7406322,Mardin
37.158602,38.7979301,Şanlıurfa
37.931282,41.93984,Siirt
37.5188049,42.4600581,Şırnak
32.7801052,-96.8000082,Dallas
-14.8498325,-40.8380598,Vitória da Conquista
22.4217648,-83.6958475,Pinar del Río
53.0162014,-2.1812607,Stoke-on-Trent
43.2389912,76.9453467,Алматы
53.4301652,14.5513137,Szczecin
51.9382922,15.5045677,Zielona Góra
51.049718,7.0175786,Leverkusen
55.8605382,9.849854,Horsens
55.4894999,9.47905,Kolding
55.7000057,9.5333238,Vejle
56.1496278,10.2134046,Aarhus
55.3997225,10.3852104,Odense
43.4623102,-3.8101067,Santander
25.3833313,97.3999925,မြစ်ကြီးနားမြို့
16.4913891,97.625556,မော်လမြိုင်
20.783341,97.0333244,တောင်ကြီးမြို့
20.1491458,94.9213518,Magwe
22.0333331,96.466667,ပြင်ဦးလွင
19.674167,97.2094441,လွိုင်ကော်မ
16.8098796,96.1587123,ရန်ကုန်
16.920556,97.371389,Thaton
18.816667,95.216667,Prome
16.783333,94.733333,Pathein
22.933333,97.75,Lashio
14.083333,98.2,Dawei
17.336667,96.479722,Bago
21.4587531,95.3924129,Myingyan
20.15,92.9,Akyab
18.933333,96.433333,Taungoo
20.466667,94.883333,Yenangyaung
21.9796979,96.0817861,မန္တလေးမြို့
22.116667,95.133333,မုံရွာမြို့
20.8814233,95.8619463,မိတ္ထီလာ
17.6451134,95.4612263,Hinthada
12.433333,98.6,Myeik
29.4928874,60.8503017,زاهدان
36.4700774,52.3516439,آمل
34.4319648,-119.7982268,
36.7606584,-119.8038111,Fresno
45.8131883,15.9769769,Zagreb
52.1303794,-106.6605124,Saskatoon
37.3114953,-120.4828288,Merced
22.4127416,-79.9668704,Santa Clara
49.1196964,6.176355,Metz
47.3906174,0.6893001,Tours
45.7774551,3.0819427,Clermont-Ferrand
49.2577886,4.031926,Reims
42.6954033,2.8844449,Perpignan
47.3215807,5.0414699,Dijon
47.8989407,1.9040221,Orléans
49.8941708,2.2956951,Amiens
43.6044622,1.4442469,Toulouse
45.8354243,1.2644847,Limoges
48.1114535,-1.679298,Rennes
43.7009504,7.2684054,Nice
45.4401467,4.3873058,Saint-Étienne
49.4937574,0.1205044,Le Havre
47.2191672,-1.5529162,Nantes
47.2415468,6.0251224,Besançon
48.0077367,0.1995271,Le Mans
48.584614,7.7507127,Strasbourg
47.7494188,7.3399355,Mulhouse
47.4707243,-0.552322,Angers
50.6305089,3.0706414,Lille
43.1257311,5.9304919,Toulon
43.8374249,4.3600687,Nîmes
49.4404591,1.0939658,Rouen
45.1864181,5.7364904,Grenoble
48.8357506,2.2399217,Boulogne-Billancourt
43.5298424,5.4474738,Aix-en-Provence
50.6915893,3.1741734,Roubaix
46.5802596,0.340196,Poitiers
50.7271174,3.1616649,Tourcoing
48.9476962,2.2481696,Argenteuil
51.0335888,2.3792644,Dunkerque
48.8631872,2.4415829,Montreuil
48.6928048,6.1838123,Nancy
54.0484068,-2.7990345,Lancaster
51.5882332,-2.9974967,Newport
53.7657076,-0.3370322,Kingston upon Hull
54.5760419,-1.2344047,Middlesbrough
53.7941567,-1.7494778,
56.6578041,23.71102,Jelgava
56.9493977,24.1051844,Rīga
50.4480951,-104.6158181,Regina
34.6800187,-1.920379,Oujda وجدة‎
35.7679823,-5.8147392,Tanger طنجة
33.8894864,-5.5505633,Maknâs  مكناس
33.2429276,-8.4988272,El Jadida الجديدة
47.8994183,20.3741291,Eger
47.531399,21.6259782,Debrecen
43.2948059,5.3708155,Marseille
49.1422908,9.2186549,Heilbronn
55.6039243,13.0073038,Malmö
57.5391883,25.4216251,Valmiera
47.84621,16.5237586,Eisenstadt
37.7789601,-122.419199,San Francisco
32.7469748,-117.2118132,San Diego
33.7491288,-117.8617518,Santa Ana
50.2627515,-5.0520467,Truro
51.0455535,-114.061503,Calgary
51.2859257,-114.0105994,Airdrie
64.5634125,39.8246073,Северодвинск
61.7900409,34.3899995,Петрозаводск
-29.1163947,26.2154956,Bloemfontein
59.218613,39.8928691,Вологда
45.8845378,22.9001417,Deva
33.9531455,-118.1905028,South Gate
33.9116166,-118.3835898,El Segundo
33.8951959,-118.333907,Hawthorne
56.858675,35.9208284,Тверь
43.262966,-2.9349516,Bilbao
42.8463696,-2.6725191,Vitoria-Gasteiz
58.5227078,31.2776162,Великий Новгород
42.2681569,-83.7312291,Ann Arbor
43.0171773,-83.7236024,Flint
57.8190485,28.3361107,Псков
-4.3102408,15.3125301,
-4.3217055,15.3125974,Kinshasa
54.7066424,20.5105165,Калининград
35.3713431,-119.0219428,Bakersfield
34.5912555,-118.1131847,Palmdale
56.3423598,30.5279225,Великие Луки
54.7940612,32.0549595,Смоленск
53.2442476,34.3635062,Брянск
27.2408236,33.8261667,الغردقة
51.739433,36.179602,Курск
29.4246002,-98.4951405,San Antonio
52.9714692,36.063372,Орёл
50.5952987,36.5869335,Белгород
-41.1797753,146.3608416,Devonport
49.5894444,34.5511111,Полтава
47.8600074,35.1100843,Запоріжжя
56.4953306,25.8709545,Jēkabpils
29.5586238,34.9535229,אילת
40.6916081,-75.2099866,Easton
56.5113513,21.0180874,Liepāja
52.409329,16.9105306,Poznań
15.160632,120.5864028,Angeles
52.100512,23.680022,Брест
14.8314675,120.2835205,Olongapo
54.8979412,23.910763,Kaunas
54.6843136,25.2853983,Vilnius
55.7101209,21.1306982,Klaipėda
55.9268086,23.3147562,Šiauliai
45.1911589,33.3694606,Євпаторія
-6.1626527,39.1909436,Zanzibar City
32.8633524,51.5539977,شاهین شهر
31.8946801,54.358325,یزد
47.5429886,7.5969912,Basel
32.753177,-97.3327459,Fort Worth
55.7038873,13.1973983,Lund
51.4552058,7.012273,Essen
33.9190633,-118.0761768,Norwalk
33.9106246,-118.0100601,La Mirada
33.8739471,-117.9557501,Fullerton
33.8767781,-118.0073973,Buena Park
33.9850922,51.4492225,کاشان
33.3790465,52.370285,اردستان
50.1432793,8.6805975,Frankfurt am Main
58.5909128,16.190348,Norrköping
60.6750132,17.1467019,Gävle
63.8212012,20.2546049,Umeå
-3.7489983,-73.2458372,Iquitos
37.281768,49.5892538,رشت
37.4718622,49.4580228,بندر انزلی
34.1080772,-118.0578137,Temple City
34.0767614,-118.067277,El Monte
34.0676174,-118.0879779,Rosemead
59.939366,30.3153623,Санкт-Петербург
43.1214207,131.8857067,Владивосток
56.8391034,60.6082502,Екатеринбург
55.7516147,37.6187089,Москва
55.0282215,82.9234476,Новосибирск
53.1984756,50.1142415,Самара
54.9868534,73.3449824,Омск
55.7823547,49.1242266,Казань
55.1601725,61.402735,Челябинск
54.7262869,55.9477285,Уфа
48.709548,44.5135546,Волгоград
58.0149643,56.2467244,Пермь
51.5502384,46.004247,Саратов
51.7126377,39.2646882,Воронеж
53.5172091,49.4136783,Тольятти
45.031826,38.9716537,Краснодар
57.6263877,39.8933705,Ярославль
53.3474212,83.7784296,Барнаул
52.2895979,104.2805843,Иркутск
53.7589831,87.1375029,Новокузнецк
51.7672701,55.0967839,Оренбург
54.6163256,39.7181403,Рязань
53.1998079,45.0000428,Пенза
57.1369473,65.5819746,Тюмень
56.3241427,43.9902091,Нижний Новгород
45.2715045,27.9743799,Brăila
45.6971016,27.1856921,Focșani
59.6110996,16.5463648,Västerås
42.830066,75.3000406,Токмок
42.870403,74.6004596,Бишкек
41.3120778,69.2787079,Tashkent
50.4053257,80.2496216,Семей
48.398312,9.9910464,Ulm
38.5346847,68.7801624,Душанбе
40.3664619,49.8353047,Baku
47.9160182,106.918296,Улаанбаатар
51.1749972,71.4308927,Астана
43.3205068,-1.9819572,Donostia - San Sebastián
34.7987689,48.5109696,همدان
63.1793655,14.6357061,Östersund
65.5831352,22.1460134,Luleå
13.5158988,2.1178034,Niamey
-8.8139932,13.2379982,Luanda
36.3612367,6.6110207,Constantine
12.6500083,-8.0000014,Bamako
32.8944978,13.1809271,Tripoli طرابلس
29.9744982,32.5370865,السويس
36.8001077,10.1847938,تونس
-11.6656429,27.4862465,Lubumbashi
31.263235,32.3055053,بور سعيد
-20.1552846,28.5877406,Bulawayo
6.3279815,-10.79777,Monrovia
-25.966993,32.4669957,Matola
6.1275372,1.2260469,Lomé
4.3619767,18.582808,Bangui
-15.4166967,28.2813812,Lusaka
-29.8541667,31.05,Durban
12.3683389,-1.5234188,Ouagadougou
5.517,5.75,Warri
7.6905207,-5.0312999,Bouaké
31.1990251,29.8969326,الإسكندرية
12.1130019,15.0489991,N’Djamena نجامينا
6.167,6.783,Onitsha
-6.8142737,39.2803756,Dar es Salaam
-6.1499956,23.5999985,Mbuji-Mayi
7.8410537,3.9315363,Oyo
14.6930042,-17.447026,Dakar
-4.8,11.85,Pointe-Noire
-26.2227778,27.89,Soweto
-13.9859979,33.78008,Lilongwe
8.133,4.25,Ogbomosho
8.4790017,-13.2680158,Freetown
6.3620052,2.4249936,Cotonou
9.5171253,-13.6999235,Conakry
4.783,7,Port Harcourt
7.3786064,3.8969928,Ibadan
0.3900023,9.4540008,Libreville
9.917,8.9,Jos
9.0107934,38.7612525,Addis Ababa
30.4170052,-9.5830103,Agadir أكادير
5.5600141,-0.2057437,Accra
-25.9512288,32.5742539,Maputo
12,8.52,Kano
11.5936909,43.1471141,Djibouti
8.4970491,4.5401842,Ilorin
10.5182899,7.4359863,Kaduna
15.635676,32.4746492,Omdurman
35.6970213,-0.6330128,Oran وهران
-1.2832532,36.8172449,Nairobi
6.45,7.5,Enugu
5.117,7.367,Aba
7.161,3.348,Abeokuta
11.8330152,13.1499859,Maiduguri
11.067,7.7,Zaria
-15.7862543,35.0035694,Blantyre
-18.9100122,47.5255809,Antananarivo
15.578699,32.5436118,Khartoum الخرطوم
32.1170043,20.0669846,Benghazi بنغازى
30.0170059,31.2134513,الجيزة
6.452,3.414,Lagos
59.2747382,15.2149957,Örebro
34.1861847,-118.1350617,Altadena
14.9323321,-23.5078723,Praia
33.8209464,-118.0434066,Cypress
33.8237404,-118.0764264,Hawaiian Gardens
49.2345288,6.9964208,Saarbrücken
29.9499323,-90.0701156,New Orleans
33.8566959,-118.0711847,Cerritos
33.894268,-118.0907016,Artesia
33.8980532,-118.1712034,Paramount
33.9135622,-118.2465225,Compton
33.7038168,-117.962736,Fountain Valley
33.669781,-117.9043161,Costa Mesa
-26.5161111,29.2027778,Secunda
34.0178881,-118.4865292,Santa Monica
21.5016086,-104.8994694,Tepic
27.1487055,-13.2044952,العيون
42.8188566,-1.6444639,Pamplona - Iruña
55.7429399,-97.8517808,Thompson
50.1439939,-96.8718354,Selkirk
50.6451166,5.5734187,Liège
50.294113,18.6657306,Gliwice
3.1575749,101.7007827,Kuala Lumpur
28.4597823,-16.2536378,Santa Cruz de Tenerife
42.6421375,18.1089804,Dubrovnik
43.5113941,16.439737,Split
44.1157846,15.2284967,Zadar
50.8705296,8.0153315,Siegen
65.0118734,25.4716809,Oulu
35.9566729,50.612015,نظرآباد
31.7774289,35.2247237,ירושלים
45.3271244,14.4413555,Rijeka
40.9502699,-4.1239335,Segovia
41.6521328,-4.728562,Valladolid
-31.9527121,115.8604796,Perth
28.1287799,-15.4350514,Las Palmas de Gran Canaria
34.7755334,32.422008,Paphos
32.3004124,-9.2417366,Safi آسفي
-23.6983884,133.8812885,Alice Springs
-29.0133608,134.7536129,Coober Pedy
-32.4913515,137.7636105,Port Augusta
-16.9243043,145.7832994,Cairns
32.5221828,-93.7651944,Shreveport
35.3340134,25.1328543,Ηράκλειο
57.3899284,21.5652134,Ventspils
47.5992959,-122.3288811,Seattle
50.2976898,18.9551755,Chorzów
52.2685545,-113.8096217,Red Deer
52.9953538,6.560553,Assen
50.5704252,-111.8924659,Brooks
50.0414898,-110.6776975,Medicine Hat
51.1958431,6.6900832,Neuss
46.6228124,14.30802,Klagenfurt am Wörthersee
59.4372156,24.7453688,Tallinn
51.7596392,14.3391578,Cottbus
-34.7523871,149.7198009,Goulburn
-5.2500086,14.8666614,Mbanza-Ngungu
-5.8256527,13.4608643,Matadi
-5.85,13.05,Boma
1.6084795,19.1034796,Makanza
0.0470732,18.2564803,Mbandaka
-2.1666825,16.2333298,Bolobo
0.5184021,25.2057292,Kisangani
53.5451595,-113.4900729,Edmonton
51.0043993,-118.2059433,Revelstoke
37.5445445,-122.3090675,San Mateo
27.1801665,31.1876406,أسيوط
28.2161361,83.9822292,पोखरा Pokhara
39.773486,64.419075,Buxoro
42.3234114,-122.876411,Medford
42.9815877,-82.440466,Port Huron
-6.1809269,106.8284591,Jakarta
43.074761,-89.3837613,Madison
43.858599,18.4295028,Sarajevo
43.3373623,17.8157313,Mostar
47.1110487,37.6025729,Маріуполь
47.2136896,38.903365,Таганрог
51.2116824,-102.4597301,Yorkton
51.2499761,22.5730694,Lublin
38.99204,-1.8632663,Albacete
49.6950059,-112.8421767,Lethbridge
44.2299666,-76.4805685,Kingston
51.768749,19.4569817,Łódź
50.4653008,4.8652458,Namur
38.2507467,48.3000944,اردبيل
38.4753354,47.0700864,اَهَر
52.2643004,10.5251064,Braunschweig
48.4287224,-123.3659414,Victoria
34.8512316,-82.3985105,Greenville
-33.0191604,27.8998573,East London
-29.6,30.3788889,Pietermaritzburg
-25.4819444,30.9847222,Nelspruit
-28.7383113,24.763737,Kimberley
-28.7747222,32.0555556,Richards Bay
-33.3070589,26.5272648,Grahamstown
51.6118188,7.2007542,Recklinghausen
-25.8764685,29.2010713,Emalahleni
50.0617795,19.9376173,Kraków
21.1708906,-86.8403165,Cancún
55.8627523,26.5304071,Daugavpils
-23.0383262,29.9066652,Louis Trichardt
-25.6656553,27.2414481,Rustenburg
58.9680427,5.7324722,Stavanger
46.2545268,20.1485919,Szeged
46.2259741,15.2686029,Celje
-22.693894,117.7961309,Tom Price
-29.3100536,27.4782219,Maseru
-27.9830556,26.7208333,Welkom
-27.7627777,29.923889,Newcastle
-24.6585601,25.9086101,Gaborone
33.8814911,73.7852184,Rawala Kot
-23.5561782,-46.6375468,São Paulo
-30.7462604,121.4729947,Kalgoorlie
52.5465149,19.7006388,Płock
42.3436415,-7.8674242,Ourense
60.3091422,25.0401152,Vantaa
-34.1847265,142.1624972,Mildura
41.9793006,2.8199439,Girona
45.8838449,-72.483637,Drummondville
46.8257374,-71.2349114,Québec
15.9809135,120.5659969,Urdaneta
15.485997,120.589556,Tarlac
-36.7588767,144.2825931,Bendigo
9.4043366,-0.8430289,Tamale
61.4980214,23.7603118,Tampere
60.1666277,24.9435079,Helsinki
62.8923485,27.6773333,Kuopio
60.9833453,25.6561599,Lahti
63.0957553,21.6159308,Vaasa
62.6000156,29.766656,Joensuu
60.4672828,26.9455849,Kotka
60.8666842,26.6999669,Kouvola
61.0666671,28.1833106,Lappeenranta
62.7954104,22.8442015,Seinäjoki
61.0000058,24.4499748,Hämeenlinna
66.4976214,25.7192101,Rovaniemi
60.3846716,23.1286377,Salo
61.6877956,27.2726569,Mikkeli
-36.3810742,145.3993177,Shepparton
42.6973054,23.3199839,София
42.0109204,23.0905953,Благоевград
42.5030458,27.4689212,Бургас
43.5688397,27.8297415,Добрич
42.8744219,25.3192189,Габрово
41.9357659,25.5542681,Хасково
42.4850954,26.5119556,Ямбол
41.6437406,25.3722156,Кърджали
42.2809956,22.6890196,Кюстендил
43.1349971,24.715431,Ловеч
43.4088985,23.2202238,Монтана
42.1948262,24.3328458,Пазарджик
42.6088723,23.0298074,Перник
43.4088034,24.6181,Плевен
42.1419116,24.7498026,Пловдив
43.5258211,26.5230603,Разград
44.1172531,27.2587235,Силистра
42.6823428,26.3208862,Сливен
41.5769241,24.7008822,Смолян
43.251196,26.5727944,Търговище
43.2166429,27.9014734,Варна
43.0768169,25.6285541,Велико Търново
44.0015396,22.8833806,Видин
43.2052236,23.5531067,Враца
52.4205588,10.7861682,Wolfsburg
51.4820941,11.970473,Halle (Saale)
9.0643305,7.4892974,Abuja
29.6568869,91.1314249,ལྷ་ས 拉萨
25.2683592,55.2963956,Dubai
58.1467271,7.9956497,Kristiansand
63.4263262,10.3958034,Trondheim
38.4440835,-78.8719367,Harrisonburg
37.977719,-0.6832777,Torrevieja
53.1260875,18.0109808,Bydgoszcz
54.4649331,17.028073,Słupsk
54.19092,16.17707,Koszalin
54.18195,15.56956,Kołobrzeg
30.4624974,31.184063,بنها‎
30.7858575,30.9988466,طنطا‎
36.679138,-121.6403845,Salinas
36.9092112,-121.7528577,Watsonville
36.9746603,-122.029419,Santa Cruz
37.3440279,-121.8830761,San José
35.1737114,-2.9259557,الناظور an-Nāẓūr
36.4270004,-121.3275522,Soledad
42.5991259,-5.5673186,León
-19.256934,146.8239533,Townsville
35.207216,-101.8338427,Amarillo
54.0994444,22.9330556,Suwałki
54.4446674,18.5685868,Sopot
54.5706054,18.3962802,Rumia
54.1590487,19.4068753,Elbląg
36.145204,-115.1611806,Las Vegas
53.1749435,22.0726067,Łomża
31.0375664,31.3864903,المنصورة
30.9723517,31.1683038,المحلة الكبرى
31.111221,30.9401454,كفر الشيخ‎
53.5959222,19.5638487,Iława
52.1683681,22.2837049,Siedlce
52.0322191,23.1173198,Biała Podlaska
51.2072213,16.1716148,Legnica
51.4072078,21.1517282,Radom
51.3639081,19.3732343,Bełchatów
50.5718757,21.6785203,Tarnobrzeg
50.6896571,21.7452654,Sandomierz
50.4857486,19.4347148,Zawiercie
50.2593174,19.0218414,Katowice
50.3309833,19.1963279,Dąbrowa Górnicza
50.8130073,19.1170825,Częstochowa
50.308417,18.7866909,Zabrze
50.7698781,16.2823844,Wałbrzych
50.2732418,18.8594072,Ruda Śląska
49.7557338,6.6402058,Trier
48.4963326,9.2105667,Reutlingen
39.0143504,125.7349937,평양 (P'yŏngyang)
-22.90556,-47.06083,Campinas
-23.4627799,-46.53333,Guarulhos
-23.5324859,-46.7916801,Osasco
-22.72528,-47.64917,Piracicaba
-23.1882258,-46.8838097,Jundiaí
42.9666965,129.843038,图们
47.502947,9.7451841,Bregenz
26.3029361,50.1959224,Khobar الخبر
46.9080769,19.6928133,Kecskemét
46.6849789,21.0866918,Békéscsaba
36.1993918,37.1626898,حلب
38.7367448,125.4115285,남포 (Namp'o)
-23.501667,-47.458056,Sorocaba
-23.180772,-45.8853145,São José dos Campos
-23.960833,-46.333889,Santos
45.5202247,-122.6741427,Portland
53.7713657,20.4787562,Olsztyn
-32.2869076,115.7464877,Rockingham
-32.5299472,115.7190078,Mandurah
-33.3403542,115.6336365,Bunbury
34.0140898,-117.730169,Chino
33.9929958,-117.7602277,Chino Hills
46.7709694,23.5912274,Cluj-Napoca
47.0658723,21.9330073,Oradea
-14.4656649,132.2631058,Katherine
34.0933691,49.6929163,اراک
32.3780494,48.4032531,Dezful
33.4875454,48.3554251,خرم آباد
33.895583,48.7561798,بروجرد
33.4907528,49.0585193,دورود
34.3248787,47.0747571,کرمانشاه
35.3172604,46.9959823,سنندج
33.6355547,46.414401,ایلام‎
37.3916711,46.2397493,مَراغه
37.3371653,46.0518488,بُناب
49.7470607,13.3775644,Plzeň
37.4285475,47.7052397,میانه
36.2427462,46.2705196,سقز
36.7614923,45.7199329,مهاباد
36.9691256,46.0998282,میاندوآب
37.201865,50.0074243,لاهیجان
36.5455753,52.6847484,بابل
36.5650462,53.0583655,ساری
36.4136841,54.9743639,شاهرود
36.8407693,54.440649,گرگان
36.2134053,57.6808799,سبزوار
36.209834,58.7927684,نيشابور
-33.9289049,18.4172485,Cape Town
35.5800808,53.3873911,سمنان
34.2948394,48.8232792,ملایر
32.3256955,50.85707,شهرکرد
32.6341756,51.3638967,نجف آباد
32.8670662,59.2194763,بیرجند
29.8676114,52.8017664,مرودشت
30.292437,57.0646796,کرمان
29.4489281,55.6818373,سیرجان
29.1046875,58.3442113,بم
31.0277839,61.4948182,زابل
-41.0521924,145.9061292,Burnie
30.3519801,48.2786525,Abadan
37.4757047,57.3324025,بجنورد
28.9682082,50.8404948,بوشهر
36.5215802,46.2130381,بوکان
30.4415718,48.1800919,خرمشهر
32.6887894,51.5309455,خمینی شهر
38.5526991,44.9575589,خوی
35.4388398,51.5684663,قرچک
35.3326516,51.6410993,ورامین
37.2490518,55.1661147,گنبد کاووس
31.9455837,49.3020915,مسجد سلیمان
35.5496155,51.2332105,اسلامشهر
36.6725929,48.487338,زنجان
30.4004842,55.9950801,رفسنجان
28.4976969,53.5557326,جهرم
35.2779757,59.2166842,تربت حیدریه
32.0119245,51.8686657,شهرضا
38.4324829,45.7761002,مرند
31.8321855,49.8691416,ایذه
30.5448332,49.1800703,بندر ماهشهر
35.4767397,51.6799501,پاکدشت
35.6651138,50.9782099,ملارد
35.6592421,51.0572342,شهریار
35.7095654,51.1231874,قدس
51.4980458,6.859351,Oberhausen
51.4284199,6.8786974,Mülheim an der Ruhr
39.962398,-76.727392,York
49.8876629,-119.4961612,Kelowna
41.3273683,19.8186432,Tirana
41.3175765,19.4691122,Durrës
33.6235986,-117.8754963,Newport Beach
33.6780129,-117.8005716,Irvine
34.0886811,-117.9026558,Covina
34.1379427,-117.9120211,Azusa
55.729171,24.3654077,Panevėžys
40.7284972,19.5623078,Fier
40.4582944,19.4849915,Vlora
39.1532008,127.4558407,원산 (Wŏnsan)
53.9172526,-122.7461341,Prince George
-22.5744184,17.0791233,Windhoek
-28.4563248,21.2418675,Upington
46.2017589,6.1465886,Genève
34.9498007,-81.9320157,Spartanburg
52.1315889,11.6399609,Magdeburg
33.7776499,-118.1875049,Long Beach
43.5854823,39.723109,Сочи
45.320454,21.8768308,Reșița
39.4699026,-0.3759555,Valencia
40.4416941,-79.9900861,Pittsburgh
54.1938261,37.6158717,Тула
43.2177784,44.765908,Назрань
48.9527158,-57.9441588,Corner Brook
57.905149,59.9508466,Нижний Тагил
67.4949564,64.0400985,Воркута
-15.7941878,-47.8827491,Brasília
-22.9112163,-43.2093781,Rio de Janeiro
-12.9816356,-38.4820771,Salvador
32.3287433,34.8567021,נתניה
50.0389525,22.0154341,Rzeszów
2.0453893,45.3398349,Muqdisho
36.5285918,-87.3098696,Clarksville
50.0141972,20.9892812,Tarnów
47.2654296,11.3927685,Innsbruck
47.8001977,13.0410592,Salzburg
46.5218269,6.6327025,Lausanne
59.3579433,27.4135654,Jõhvi
-28.77035,114.6147159,Geraldton
29.651907,-82.3247976,Gainesville
3.1199508,43.6444625,Baydhabo
-26.6747222,27.9261111,Vereeniging
4.1232117,43.8912283,Xudur
1.7149432,44.7699943,Marka
2.7781441,45.5031287,Jowhar
2.1464622,45.1193096,Afgooye
1.78333,44.53333,Qoryooley
-0.36667,42.53333,Kismaayo
33.89518,-118.4009164,Manhattan Beach
2.3372449,42.2849308,Baardheere
0.07222,42.75056,Jamaame
3.7995708,42.5450627,
0.4931586,42.7740144,Jilib
2.7964252,44.0820143,Buurhakaba
2.6191506,44.8935749,Wanlaweyn/Daafeed
34.149434,-118.0017084,Monrovia
43.5461764,-80.2470591,Guelph
46.555628,15.64477,Maribor
-38.1496881,144.3615609,Geelong
45.0433245,41.9690934,Ставрополь
32.7876012,-79.9402728,Charleston
36.1949274,-86.7417714,Nashville
37.5601324,-122.2688278,Foster City
26.2235041,50.5822436,Manama
48.0010796,37.8042197,Донецьк
30.9089582,75.8516285,Ludhiana
49.2947723,19.9503207,Zakopane
-35.3538856,149.2323111,Queanbeyan
37.541239,-77.4420183,Richmond
50.8512438,5.6909768,Maastricht
50.8842812,5.986167,Heerlen
38.4627483,23.5952169,Χαλκίδα
51.43406,5.48784,Eindhoven
51.49354,3.60682,Middelburg
11.2784679,49.1799568,Boosaaso
5.535,46.38611,Dhuusamarreeb
4.7355786,45.2040946,Beledweyne
1.083333,42.58333,Buaale
6.7697256,47.4308257,Gaalkacyo
8.4063919,48.4830562,Garoowe
10.61806,47.37,Ceerigaabo
8.406389,48.48306,Garoowe
8.4755586,47.3577768,Laascaanood
9.5241745,45.536932,Burao
9.5600006,44.0650021,Hargeysa
6.9736117,80.7670874,Nuwara Eliya
51.9228958,4.4631727,Rotterdam
6.0352601,80.2154191,Galle
51.98466,5.91167,Arnhem
-20.3111814,118.5801181,Port Hedland
-0.2832978,36.0666,Nakuru
-4.0505196,39.6671689,Mombasa
0.0500034,37.6500063,Meru
-3.2165987,40.1165933,Malindi
-1.521219,37.2682336,Machakos
1.0180761,35.000236,Kitale
-0.3666,35.2833,Kericho
-0.4665968,39.6332917,Garissa
52.2179694,6.8936189,Enschede
52.2602356,6.1555172,Deventer
52.2670143,6.7918655,Hengelo
52.35513,6.66093,Almelo
52.37445,5.21233,Almere
49.6249089,20.6909754,Nowy Sącz
53.2190692,6.5680421,Groningen
47.5355768,-122.0432974,Issaquah
47.4747741,-122.2048017,Renton
47.6135661,-122.202118,Bellevue
47.9673056,-122.2013998,Everett
45.6306954,-122.6744557,Vancouver
-22.3453519,30.0268526,Musina
47.6588603,-117.4247134,Spokane
47.0414804,-122.891333,Olympia
-33.4379537,-70.650404,Santiago
-29.9026538,-71.2519852,La Serena
-29.9538283,-71.3380213,Coquimbo
-33.0188892,-71.5514112,Viña del Mar
-35.422468,-71.6573434,Talca
31.7600372,-106.487287,El Paso
6.937072,79.8492578,Colombo
-29.4641831,149.8421765,Moree
5.9475198,80.5472334,Matara
-28.5519444,29.7783333,Ladysmith
49.5089787,-115.7584048,Cranbrook
55.1703072,-118.7950658,Grande Prairie
53.278804,-110.0061933,Lloydminster
54.465,-110.183056,Cold Lake
-24.1833333,29.0166667,Mokopane
41.4500947,2.2476436,Badalona
51.8987643,-8.4712125,Cork
54.2718711,-8.4759024,Sligo
52.2591035,-7.1137442,Waterford
53.3492787,-6.2611661,Dublin
49.15,-103,Estevan
52.866667,-104.6,Melfort
49.666667,-103.85,Weyburn
50.2921195,-107.7897766,Swift Current
52.1991732,-105.1260948,Humboldt
52.7811146,-108.2939921,North Battleford
53.1997545,-105.7468465,Prince Albert
49.2221074,-122.6901612,Pitt Meadows
49.2499987,-123.1333301,Vancouver
49.2500011,-122.9500111,Burnaby
49.7,-123.1500001,Squamish
52.9755393,-122.4941877,Quesnel
50.6762464,-120.3398808,Kamloops
49.166667,-121.95,Chilliwack
49.1,-122.65,Langley
49.283333,-122.85,Port Moody
49.2059726,-122.9208103,New Westminster
49.2559998,-122.7651991,Port Coquitlam
49.1669807,-123.936473,Nanaimo
49.05,-122.3,Abbotsford
49.0246299,-122.799814,White Rock
56.25,-120.833333,Fort Saint John
49.1640019,-123.1389125,Richmond
50.016667,-125.25,Campbell River
54.5205722,-128.6060566,Terrace
49.3333281,-123.1666718,West Vancouver
51.1526995,-100.0421877,Dauphin
49.1825586,-97.9339763,Winkler
49.8833344,-97.1666742,Winnipeg
52.8814075,20.6110759,Ciechanów
49.6112768,6.129799,Luxembourg
-41.2710849,173.2836756,Nelson
18.4464186,-66.0755069,San Juan
17.9712148,-76.7928128,Kingston
-38.6896447,176.0912084,Taupo
-38.1381493,176.252922,Rotorua
45.2649684,-72.1466233,Magog
-17.9640268,122.2176092,Broome
-37.8254509,147.6304752,Bairnsdale
-38.1054104,147.0646345,Sale
-40.3561582,175.6111069,Palmerston North
-39.4910366,176.9181214,Napier
-39.6429882,176.8448108,Hastings
49.8369609,18.2873915,Ostrava
45.7544441,21.226419,Timișoara
39.6369927,22.417088,Λάρισα
40.2691883,22.5064995,Κατερίνη
40.6403167,22.9352716,Θεσσαλονίκη
34.6852929,135.5146944,大阪市 (Osaka)
43.0619001,141.3543999,札幌市 (Sapporo)
-41.1354918,174.8396887,Porirua
56.5051394,27.3339743,Rēzekne
35.9208382,74.314072,Gilgit
41.7065779,-73.9284101,Poughkeepsie
33.597262,73.0631231,Rawalpindi
34.4301914,70.4601355,Jalalabad
24.8741634,67.0317972,کراچي
-0.2201687,-78.5120913,Quito
-15.8427465,-70.0237203,Puno
-12.0459739,-77.0306154,Lima
18.9165412,-99.2229736,Cuernavaca (Cuauhnāhuac)
-7.7871982,110.3764518,Yogyakarta
-13.5212349,-71.9711244,Cusco
-42.8824593,147.3273244,Hobart
-37.8301386,140.7842627,Mount Gambier
46.2176969,24.7937765,Sighișoara
45.2551053,19.845081,Novi Sad
-30.5133616,151.6666059,Armidale
43.615046,-116.2044429,Boise
43.5737361,-116.559642,Nampa
43.6678736,-116.6894156,Caldwell
43.6086295,-116.392326,Meridian
-25.8636111,25.6586111,Mafikeng
-26.8625383,26.6656814,Klerksdorp
41.9270987,-73.99611,Kingston
44.9417468,26.0236504,Ploiesti
-39.9348927,175.0542393,Whanganui
-39.0579941,174.0806474,New Plymouth
-26.3613889,27.4016667,Carletonville
-26.0955556,27.7755556,Krugersdorp
53.135207,23.1521426,Białystok
40.6022032,-75.4716219,Allentown
36.5522041,31.9934485,Alanya
59.7484419,30.6044785,Колпино
33.9229273,-6.9084971,Temara تمارة
57.0480541,9.91992,Aalborg
-37.6865464,176.1684472,Tauranga
43.207106,-71.5370216,Concord
55.0829106,21.8827392,Советск
-38.6609674,178.0150687,Gisborne
40.5508527,-105.0668085,Fort Collins
51.6889351,5.3031044,'s-Hertogenbosch
46.9635124,32.0066825,Миколаїв
64.147317,-21.9399489,Reykjavík
-1.950851,30.0615075,Kigali
44.8178836,20.456805,Београд
41.7641463,-72.6822578,Hartford
24.9457522,121.2183594,平鎮市 (Pingjhen City)
23.982074,121.60681,花蓮市 (Hualien City)
23.5658452,119.5664994,馬公市 (Magong)
24.0809114,120.5422941,Changhua City
22.6697227,120.4884652,Pingdong City
24.9075751,121.1458735,Yangmei City
22.6208556,120.3119216,高雄市
24.9160001,121.4999999,新北市 (Xinbei City)
24.751682,121.753476,Yilan City
23.464961,120.247014,Puzih
23.1724781,120.2793633,Tainan City
24.993885,121.3016686,桃園市 (Taoyuan City)
24.92885,121.28468,八德市 (Bade)
22.7560447,121.1456538,Taitung City
23.697651,120.52736,斗六市 (Douliou)
24.1510579,120.67458,Taichung City
23.481568,120.452538,嘉義市 (Chiayi City)
23.459647,120.332876,太保市 (Taibao)
24.5614721,120.818869,Miaoli City
23.9099561,120.6837059,南投市 - Nantou City
24.8396517,121.0043171,Jhubei
24.806738,120.9687981,新竹市 (Hsinchu City)
-15.2451518,-40.2458578,Itapetinga
45.1488649,26.8304792,Buzău
-3.3585234,29.3682312,Bujumbura
-1.6665893,29.2256875,Goma
-37.7876214,175.2813186,Hamilton
-4.8766994,29.6367154,Kigoma
32.1622967,74.2016285,Gujranwala
39.0994728,-94.5813298,Kansas City
42.1155716,-80.0807007,Erie
-26.1903375,152.6635864,Gympie
-25.5460201,152.7007731,Maryborough
-27.4689806,153.023503,Brisbane
46.4897869,-80.9892314,Sudbury
6.579895,79.9655869,Kalutara
43.77041,11.2550368,Firenze
43.4728365,11.8694784,Arezzo
42.7599201,11.1137891,Grosseto
43.542636,10.316005,Livorno
43.84149,10.5024804,Lucca
44.0366034,10.1409467,Massa
43.7159277,10.401906,Pisa
43.9335839,10.917443,Pistoia
43.880598,11.0969262,Prato
43.3185536,11.3316533,Siena
40.7305993,-73.9865813,New York
38.2462801,21.7350652,Πάτρα
19.4325305,-99.1332104,Ciudad de México
45.4666212,9.1906166,Milano
45.6979811,9.668953,Bergamo
45.5387679,10.2245819,Brescia
45.8104264,9.0856219,Como
45.1346168,10.0251103,Cremona
45.1598944,10.7968319,Mantova
45.1860043,9.1546375,Pavia
45.8183902,8.823913,Varese
45.5835206,9.2734426,Monza
34.258942,-6.5812073,Kenitra القنيطرة
33.894009,-6.3167296,تيفلت Tiflet
33.8302864,-6.072605,الخميسات Khemisset
34.230155,-4.0101041,تازة Taza
45.0709201,7.6859719,Torino
44.9124486,8.6189347,Alessandria
44.9006793,8.2068525,Asti
45.5664109,8.0542758,Biella
44.3895619,7.5478699,Cuneo
45.4455719,8.6197923,Novara
45.3251557,8.4227666,Vercelli
48.1033191,20.7910662,Miskolc
47.687609,17.6346815,Győr
47.9546729,21.7173117,Nyíregyháza
46.0673238,11.1265895,Trento
46.4980632,11.3540184,Bolzano - Bozen
45.4386706,12.3290979,Venezia
46.1375185,12.2181711,Belluno
45.0709468,11.7900471,Rovigo
45.6681642,12.2508389,Treviso
45.4382222,10.9935543,Verona
45.5474203,11.5469039,Vicenza
37.7701448,-3.7874961,Jaén
43.6112423,3.8767336,Montpellier
41.5398292,2.4448353,Mataró
32.9335017,73.7412291,Jhelum
32.5684068,74.0639783,Gujrat
45.635319,13.8032372,Trieste
45.9412541,13.6184546,Gorizia
45.9585884,12.6583314,Pordenone
46.0650933,13.2376674,Udine
44.40726,8.9338624,Genova
44.1105467,9.843378,La Spezia
44.3078624,8.4806327,Savona
27.7089628,85.3079209,काठमांडौ
38.111051,13.335745,Palermo
37.316522,13.5896536,Agrigento
37.4899665,14.062274,Caltanissetta
37.5028972,15.0870338,Catania
37.5588481,14.2891708,Enna
38.1940297,15.554114,Messina
36.92824,14.7171868,Ragusa
37.0714069,15.2829873,Siracusa
38.0160543,12.5437475,Trapani
37.6162936,14.887335,
38.1104608,15.6614235,Reggio di Calabria
38.890788,16.598705,Catanzaro
39.3099931,16.2501929,Cosenza
39.0806571,17.1271705,Crotone
38.67428,16.095097,Vibo Valentia
40.644317,15.808567,Potenza
40.668523,16.601585,Matera
41.560027,14.66753,Campobasso
41.600225,14.23822,Isernia
33.1475393,73.7445689,Mirpur
48.9746599,14.4744846,České Budějovice
50.0375106,15.7744445,Pardubice
50.209331,15.8331817,Hradec Králové
43.1119613,12.3890104,Perugia
42.5668741,12.6495213,Terni
41.125606,16.861828,Bari
40.6367595,17.9455914,Brindisi
40.3570373,18.1718482,Lecce
40.4699692,17.2429282,Taranto
41.2306372,16.2908676,Andria
41.275088,16.4162585,Trani
-25.2985784,152.8535216,Hervey Bay
40.9167967,14.7896221,Avellino
41.1295587,14.7824639,Benevento
41.083215,14.3349289,Caserta
40.6779286,14.7660005,Salerno
41.7006355,-71.1545461,Fall River
44.2226017,12.0409384,Forlì
44.6458441,10.9255625,Modena
44.8013504,10.3280355,Parma
45.0467651,9.6993659,Piacenza
44.4161414,12.2017617,Ravenna
44.6983278,10.6307397,Reggio nell'Emilia
44.0593654,12.5686168,Rimini
43.6170137,13.5170982,Ancona
42.8546936,13.5863341,Ascoli Piceno
43.3007043,13.4535864,Macerata
43.7263496,12.6366336,Urbino
43.1619841,13.7190161,Fermo
42.3650435,13.3934795,L'Aquila
42.3446529,14.1659738,Chieti
42.4645699,14.2137512,Pescara
42.6626986,13.701496,Teramo
-35.7267854,174.3198652,Whangarei
12.6121641,37.4611556,Gonder
43.4930789,-112.044349,Idaho Falls
23.375257,116.7013207,汕头 (Shantou)
41.9071505,12.4841965,Roma
41.6418374,13.3450021,Frosinone
41.4672589,12.9035737,Latina
42.4016906,12.8629993,Rieti
42.4164974,12.1039438,Viterbo
39.222538,9.117145,Cagliari
40.729561,8.550912,Sassari
40.9213761,9.4856254,Olbia
33.3443322,73.688386,Dadyal
21.0292095,105.85247,Hà Nội
-24.8826103,113.6576408,Carnarvon
47.1909987,18.4108781,Székesfehérvár
47.1749325,20.1963624,Szolnok
52.5998491,39.5782312,Липецк
-9.202087,25.8528901,Bukama
-33.481536,150.1564887,Lithgow
57.0525057,53.9906132,Воткинск
-27.6424132,153.1131037,Logan
37.4421624,-122.1634477,Palo Alto
37.3855745,-122.08205,Mountain View
30.1898249,67.019108,کوئٹہ
-34.6169869,-58.4460813,Buenos Aires
56.7726985,54.1247155,Чайковский
24.2239738,55.7510061,Al Ain
62.2393888,25.7458628,Jyväskylä
1.5625,30.2484167,Bunia
0.1249694,29.2919545,Butembo
-41.4670215,-72.9478644,Puerto Montt
42.2376383,-8.7244751,Vigo
53.0144377,18.6050215,Toruń
45.40379,-71.8908086,Sherbrooke
-29.7738609,151.1114339,Inverell
47.4983377,19.0404712,Budapest
1.7139544,33.6128421,Soroti
44.7241965,37.7681522,Новороссийск
-6.1789421,35.7472675,Dodoma
-26.6547164,153.0917833,Maroochydore
-26.8053732,153.1328533,Caloundra
-17.8531351,25.8614287,Livingstone
26.2458945,68.4013979,Nawabshah
27.6961848,68.8588668,Sukkur
48.7763496,9.1829087,Stuttgart
27.5302844,68.7645553,Khairpur Mirs
28.3086664,70.1283004,Sadiqabad
14.5000371,-4.193018,Mopti
11.3139735,-5.6666581,Sikasso
13.4415633,-6.2680397,Ségou
-23.4409987,144.251862,Longreach
-27.5900014,-48.5341646,Florianópolis
25.1479816,62.3254553,Gawadar
45.1126249,-72.6173667,Sutton
45.207009,-72.7458872,Cowansville
45.4080006,-72.7328818,Granby
55.0951738,36.611913,Обнинск
34.0155606,71.981283,Nowshera
34.1442328,71.7323779,چارسدہ
46.8700593,-113.9952608,Missoula
45.7874957,-108.49607,Billings
47.50527,-111.3068028,Great Falls
34.055735,-117.1888961,Redlands
20.8476125,106.7074328,Hải Phòng
43.4930746,43.619357,Нальчик
43.813319,18.3172975,Sokolovići
0,57.528682,
36.3465735,43.1270083,موصل
53.1542826,48.4630478,Сызрань
44.4361391,26.1027436,București
63.7535819,-68.5028019,Iqaluit
34.4098107,-119.6970239,Santa Barbara
-31.0798092,152.842289,Kempsey
4.8434842,31.5982172,Juba جوبا
31.6257334,65.7145053,کندهار (Kandahar)
47.1140881,51.9297862,Атырау
40.0053169,52.9928838,Türkmenbaşy
-23.0066543,-44.3180421,Angra dos Reis
40.03813,-76.3056686,Lancaster
36.8540338,42.989606,دهوك
28.2920249,-81.4078013,Kissimmee
28.5421175,-81.3790462,Orlando
44.564577,27.3706217,Slobozia
21.7904253,31.3738839,Wadi Halfa
45.4337335,28.0551455,Galați
37.871571,-122.2728222,Berkeley
28.811648,-81.267953,Sanford
43.321504,21.8957301,Niš
36.1545486,-95.9906783,Tulsa
40.3364587,-75.9288612,Reading
32.5344409,-117.0393788,Tijuana
-6.7321517,147.0025982,Lae
33.7727748,72.7454111,Wah
50.8746557,20.6259668,Kielce
62.4552218,-114.3695002,Yellowknife
50.2128658,-66.3770444,Sept-Îles
50.7625525,15.057387,Liberec
-12.0465478,-77.1445069,Callao
31.8008953,74.2544574,Muridke
31.4186796,73.0790834,Faisalabad
47.5665391,-122.6527973,Bremerton
46.5967275,-120.5296561,Yakima
48.6223502,22.3021255,Ужгород
-36.23563,149.1264221,Cooma
58.5416401,50.0346458,Кирово-Чепецк
58.6032812,49.6640767,Киров
-30.9533744,148.3837554,Coonamble
-33.8349393,148.6925158,Cowra
-33.2820463,149.0971567,Orange
-35.1149957,147.3677739,Wagga Wagga
-30.9476561,149.0677062,Baradine
-31.9584258,141.4650344,Broken Hill
52.6519667,19.0645763,Włocławek
14.8040492,100.6446231,ลพบุรี
15.697411,100.1254381,นครสวรรค์
16.818956,100.2568064,พิษณุโลก
17.6351923,100.1002323,อุตรดิตถ์
34.1575766,73.2223223,ایبٹ آباد
34.3286855,73.1993125,Mansehra / مانسہرہ
-32.8333333,151.3561111,Cessnock
46.1649111,24.3511266,Mediaș
-32.2478964,148.6026502,Dubbo
-28.8640919,153.0482959,Casino
-31.0917974,150.931072,Tamworth
-28.8066667,153.2858333,Lismore
-32.7316683,151.5511123,Maitland
25.0783456,-77.3383331,Nassau
32.9326612,72.8562668,Chakwal
19.8887438,102.135898,ຫຼວງພະບາງ
-7.2445967,112.7447936,Surabaya
44.9267134,25.4629464,Târgoviște
-33.4250175,151.3417318,Gosford
32.4956941,74.5412622,Sialkot
43.8158666,28.5825271,Mangalia
14.203647,101.2147087,นครนายก
14.0549259,101.3713628,ปราจีนบุรี
55.5326913,28.6688757,Новополоцк
55.4857019,28.7762951,Полоцк
43.896189,25.9652493,Giurgiu
-34.2878405,146.0468933,Griffith
45.1334342,-71.8038024,Coaticook
31.860742,-116.6248246,Ensenada
18.3933145,103.6589076,ປາກຊັນ
17.9640988,102.6133707,ວຽງຈັນ
42.4415238,19.2621081,Podgorica
41.6147605,0.6267842,Lleida
-36.7148099,142.2018105,Horsham
41.5910641,-93.6037149,Des Moines
30.969701,76.5274613,Ropar
30.819294,75.1746226,Moga
44.6301908,22.659342,Drobeta Turnu Severin
44.8572343,24.8719422,Pitești
50.6671994,17.9253258,Opole
51.7650782,18.0882728,Kalisz
47.6567042,23.5693321,Baia Mare
47.6472323,26.2515719,Suceava
47.1326866,24.4965236,Bistrița
45.8616793,25.7886792,Sfântu Gheorghe
45.177933,28.8018892,Tulcea
36.0428907,14.2398479,Ir-Rabat (Victoria)
47.1615733,27.5838361,Iași
47.0122737,28.8605935,Chişinău
52.1480205,10.3489635,Salzgitter
47.1815951,23.0559388,Zalău
45.2780145,-66.055875,Saint John
40.2972796,44.3660668,Աշտարակ (Ashtarak)
40.785396,43.8434113,Գյումրի (Gyumri)
40.1776121,44.5125849,Երևան (Yerevan)
40.1556649,44.0397343,Արմավիր (Armavir)
37.0539702,41.2317371,القامشلي
39.5523325,21.7657357,Τρίκαλα
39.3633232,21.9218706,Καρδίτσα
47.7450706,26.6599858,Botoșani
44.7167675,26.6324659,Urziceni
46.9297911,26.3678411,Piatra-Neamț
4.887401,-1.7519316,Takoradi
4.937,-1.7127928,Sekondi
21.0060466,101.406511,ຫຼວງນ້ຳທາ
16.5681036,104.7587499,ສະຫວັນນະເຂດ
21.6834928,102.1056616,ຜົ້ງສາລີ
15.7181539,106.423533,ສາລະວັນ
42.5770013,-2.8467532,Haro
15.1184279,105.8012582,ປາກເຊ
15.3473583,106.726536,ເຊກອງ
17.3946183,104.8064526,ທ່າແຂກ
19.454856,103.1866259,ໂພນສະຫວັນ
14.8156008,106.825948,​ອັດຕະປື
38.3687776,21.4281115,Μεσολόγγι
38.6247745,21.4095093,Αγρίνιο
39.3609876,22.9457579,Βόλος
38.9099987,21.8122282,Καρπενήσι
44.72284,22.3986938,Orșova
45.047334,23.2798843,Târgu Jiu
44.4296704,24.3664979,Slatina
39.6712517,20.8591783,Ιωάννινα
45.1100616,24.3735182,Râmnicu Vâlcea
43.9703565,25.3317085,Alexandria
38.7521235,-121.2880059,Roseville
46.3598368,25.7974125,Miercurea Ciuc
44.1960915,27.3311998,Călărași
55.8892847,37.4449896,Химки
44.2471725,28.2694353,Medgidia
-29.1688797,-51.1926426,Caxias do Sul
-29.1654171,-51.5209306,Bento Gonçalves
-29.9183028,-51.1779216,Canoas
-28.783079,-51.6059652,Nova Prata
11.1828042,-60.7372545,Scarborough
-28.0020594,153.41546,Gold Coast
16.8834726,-24.9883992,Mindelo
50.6196175,26.2513165,Рівне
50.7612784,25.351757,Луцьк
47.7945819,22.8797292,Satu Mare
34.5068601,-82.6506264,Anderson
44.6967952,-73.4879659,Plattsburgh
58.0503742,38.8346364,Рыбинск
57.7672092,40.9256164,Кострома
56.9985047,40.9781085,Иваново
-21.1415238,149.1867614,Mackay
-23.3782409,150.5131869,Rockhampton
42.2103619,20.7384293,Prizren
58.3019496,-134.419734,Juneau
57.79,-152.4072222,Kodiak
56.8128436,-132.9554483,Petersburg
61.218056,-149.9002806,Anchorage
34.1705609,-118.8375937,Thousand Oaks
38.4404675,-122.7144314,Santa Rosa
40.7606467,-111.89109,Salt Lake City
33.9533546,-117.3961623,Riverside
34.1063989,-117.5931084,Rancho Cucamonga
37.3541132,-121.9551744,Santa Clara
37.6390972,-120.9968782,Modesto
33.8752945,-117.5664449,Corona
35.1980672,-111.6512725,Flagstaff
48.6330395,-112.3261617,Cut Bank
33.937517,-117.2305944,Moreno Valley
35.6267654,-120.6912456,Paso Robles
34.1975048,-119.1770516,Oxnard
33.9623032,-118.3527104,Inglewood
33.7877945,-117.8531119,Orange
37.104153,-113.5841313,St. George
33.1958696,-117.3794834,Oceanside
33.8358492,-118.3406288,Torrance
35.2827525,-120.6596156,San Luis Obispo
34.0214121,-118.3958036,Culver City
34.2694474,-118.781482,Simi Valley
36.0391456,-114.9819235,Henderson
37.5482697,-121.9885719,Fremont
38.2493581,-122.0399663,Fairfield
48.5052631,-111.8569668,Shelby
34.0922335,-117.435048,Fontana
44.9392273,-122.9862439,Salem
40.6916132,-112.0010501,West Valley City
34.1083449,-117.2897652,San Bernardino
34.6980406,-118.1367393,Lancaster
39.5295269,-119.813779,Reno
40.9646867,-75.9852789,Hazleton
34.2783355,-119.2931743,Ventura
38.5815719,-121.4943996,Sacramento
38.1040864,-122.2566367,Vallejo
32.9628234,-117.0358646,Poway
32.574055,-116.6270241,Tecate
46.9753708,-123.8157218,Aberdeen
37.9577016,-121.2907796,Stockton
37.3688301,-122.0363496,Sunnyvale
32.2217429,-110.926479,Tucson
33.4483772,-112.0740374,Phoenix
37.6688205,-122.0807964,Hayward
36.6002379,-121.8946762,Monterey
34.0633443,-117.6508876,Ontario
34.0039044,-117.0619774,Calimesa
40.2338438,-111.6585337,Provo
38.4087993,-121.3716178,Elk Grove
34.0552886,-117.7522793,Pomona
33.1216751,-117.0814849,Escondido
33.7186333,-116.3083426,Indian Wells
39.5349169,-119.7526936,Sparks
37.9779777,-122.0310733,Concord
34.0686208,-117.9389526,West Covina
33.9400143,-118.1325688,Downey
34.3916641,-118.542586,Santa Clarita
48.1705297,-111.9462893,
34.9531295,-120.4358577,Santa Maria
38.0049214,-121.805789,Antioch
36.3302284,-119.2920585,Visalia
37.8043808,-122.2708166,Oakland
37.9357576,-122.3477486,Richmond
32.6400541,-117.0841955,Chula Vista
-33.8592856,121.8936147,Esperance
42.5006217,-90.6647967,Dubuque
39.7339361,-90.2290099,Jacksonville
29.5688411,-97.9647269,Seguin
29.6910625,-95.2091006,Pasadena
29.1399633,-98.905306,Devine
30.2240897,-92.0198427,Lafayette
37.2153307,-93.2982521,Springfield
40.8075391,-91.1129234,Burlington
32.7666103,-96.599472,Mesquite
38.5738096,-109.5462146,Moab
38.8338816,-104.8213634,Colorado Springs
35.0841034,-106.6509851,Albuquerque
35.1495343,-90.0489801,Memphis
42.4927641,-92.3429631,Waterloo
33.5778631,-101.8551665,Lubbock
44.9553658,-93.1022043,Saint Paul
26.1836854,-98.1230638,Alamo
31.1171194,-97.7277959,Killeen
26.1702082,-98.0522376,Donna
38.9716689,-95.2352501,Lawrence
42.4999994,-96.4003099,Sioux City
38.0608444,-97.9297743,Hutchinson
38.9822282,-94.6707917,Overland Park
28.7091433,-100.4995214,Eagle Pass
33.441795,-94.0376924,Texarkana
39.7391536,-104.9847034,Denver
40.8000554,-96.6674005,Lincoln
34.7464809,-92.2895948,Little Rock
32.4464534,-99.7333478,Abilene
32.8140177,-96.9488945,Irving
33.09917,-97.44639,New Fairview
41.2587317,-95.9378732,Omaha
29.5957696,-90.7195348,Houma
39.3022693,-90.4070632,Carrollton
44.9772995,-93.2654692,Minneapolis
32.735687,-97.1080656,Arlington
30.0860459,-94.1018461,Beaumont
29.3474631,-99.141433,Hondo
31.549333,-97.1466695,Waco
36.0625843,-94.1574328,Fayetteville
26.1892409,-98.1552872,San Juan
33.2148412,-97.1330683,Denton
32.2990384,-90.1847691,Jackson
32.8084605,-98.1128223,Mineral Wells
41.976132,-91.6705908,Cedar Rapids
25.9140256,-97.4890856,Brownsville
31.3407403,-93.846852,Hemphill
27.8002542,-97.3955744,Corpus Christi
26.2043691,-98.230082,McAllen
38.8843867,-94.8161127,Olathe
37.0842331,-94.5132883,Joplin
39.0638706,-108.5506486,Grand Junction
29.233294,-98.7964137,Lytle
29.5627819,-98.6863446,Helotes
39.4370257,-90.4026529,White Hall
31.3112936,-92.4451371,Alexandria
43.5499749,-96.700327,Sioux Falls
30.2265949,-93.2173759,Lake Charles
35.6869752,-105.9377991,Santa Fe
39.729432,-104.8319196,Aurora
38.5767026,-92.1735165,Jefferson City
41.5236436,-90.5776368,Davenport
26.3013982,-98.1624501,Edinburg
40.3014316,-90.0633625,Havana
41.6611277,-91.5301683,Iowa City
38.2544472,-104.609141,Pueblo
38.6264972,-90.1993244,Saint Louis
37.6922361,-97.3375448,Wichita
29.3557903,-98.8786387,Castroville
29.3627296,-100.896761,Del Rio
42.0347096,-93.6199485,Ames
29.7030097,-98.1244607,New Braunfels
30.4507462,-91.154551,Baton Rouge
26.1595156,-97.9908429,Weslaco
44.0073325,-92.4691187,Rochester
29.4952307,-98.6186317,Leon Valley
35.3857623,-94.3986725,Fort Smith
30.2674473,-97.7425618,Austin
27.506407,-99.5075421,Laredo
41.3856804,2.1702046,Barcelona
41.113686,1.2527386,Tarragona
41.1555564,1.1076133,Reus
42.9635153,-85.6686365,Grand Rapids
41.8663868,-88.109875,Wheaton
44.028944,-88.1628151,Chilton
39.7683795,-86.1580447,Indianapolis
37.9747645,-87.5558483,Evansville
42.1655801,-88.2942493,Algonquin
38.2542386,-85.7594075,Louisville
34.7304322,-86.5861159,Huntsville
41.8756208,-87.6243706,Chicago
41.9141984,-88.3086977,Saint Charles
41.6833813,-86.2500066,South Bend
35.0456297,-85.3096801,Chattanooga
34.7998143,-87.6772558,Florence
33.5206824,-86.8024326,Birmingham
30.1765914,-85.8054879,Panama City Beach
35.614517,-88.813947,Jackson
30.2454776,-85.648261,Lynn Haven
30.4057552,-86.618842,Fort Walton Beach
43.0024346,-89.4234537,Fitchburg
41.525031,-88.0817252,Joliet
33.2095614,-87.5675258,Tuscaloosa
39.4842821,-88.3773279,Mattoon
41.3669902,-85.0588632,Auburn
30.421309,-87.2169149,Pensacola
42.0372487,-88.2811895,Elgin
38.5922715,-89.9112124,O'Fallon
30.3960318,-88.8853078,Biloxi
30.1600827,-85.6545729,Panama City
30.6943566,-88.0430541,Mobile
41.5833658,-87.500043,Hammond
34.0142639,-86.0066387,Gadsden
30.7621326,-86.5705084,Crestview
41.2381017,-85.8530544,Warsaw
42.6745321,-85.6457663,Wayland
30.3935337,-86.4957834,Destin
37.7385,-88.5405213,Harrisburg
39.4667025,-87.4139119,Terre Haute
39.8403147,-88.9548001,Decatur
39.7989763,-89.6443688,Springfield
41.0799898,-85.1386015,Fort Wayne
40.6938609,-89.5891008,Peoria
42.2713945,-89.093966,Rockford
30.3674198,-89.0928155,Gulfport
42.291707,-85.5872286,Kalamazoo
32.3668052,-86.2999689,Montgomery
41.7605849,-88.3200715,Aurora
40.7989522,-81.3784445,Canton
29.2858129,-81.0558894,Ormond Beach
36.5484341,-82.5618186,Kingsport
33.7490987,-84.3901849,Atlanta
41.0814447,-81.5190053,Akron
27.9094665,-82.7873244,Largo
27.3364347,-82.5306527,Sarasota
36.3134398,-82.3534728,Johnson City
36.0998596,-80.244216,Winston-Salem
39.1014564,-84.5138592,Cincinnati
26.2378597,-80.1247667,Pompano Beach
27.9475216,-82.4584279,Tampa
39.9622601,-83.0007065,Columbus
27.9658533,-82.8001026,Clearwater
32.8406953,-83.6323987,Macon
28.6122187,-80.8075538,Titusville
29.9443451,-82.1101137,Starke
26.640628,-81.8723084,Fort Myers
28.0836269,-80.6081089,Melbourne
28.0394654,-81.9498042,Lakeland
34.0750989,-84.2124265,Alpharetta
26.1223084,-80.1433786,Fort Lauderdale
25.9725975,-81.7289763,Marco Island
26.318342,-80.0996306,Deerfield Beach
29.1871986,-82.1400923,Ocala
40.0639616,-80.7209149,Wheeling
32.4609764,-84.9877094,Columbus
28.0331886,-80.6429695,Palm Bay
30.4380832,-84.2809332,Tallahassee
26.4614625,-80.0728201,Delray Beach
25.4687224,-80.4775569,Homestead
35.2270869,-80.8431268,Charlotte
37.9441518,23.6486215,Πειραιάς
40.8372858,-81.2595487,Louisville
28.9005446,-81.2636738,Deltona
41.6348464,-84.9992683,Angola
28.0222435,-81.7328568,Winter Haven
25.7881436,-80.1272705,Miami Beach
27.7708606,-82.6792661,St. Petersburg
26.7153425,-80.0533746,West Palm Beach
25.7742658,-80.1936589,Miami
33.9595974,-83.376678,Athens
42.5803122,-83.0302033,Sterling Heights
35.3187317,-82.4609603,Hendersonville
27.044224,-82.2359254,North Port
27.6387163,-80.3975399,Vero Beach
27.2939333,-80.3503283,Port St. Lucie
27.4989278,-82.5748194,Bradenton
27.816415,-80.4706078,Sebastian
29.5541432,-81.2207673,Palm Coast
25.6792695,-80.3172743,Kendall
38.3498221,-81.6326301,Charleston
26.5628537,-81.9495331,Cape Coral
26.5253491,-80.0664309,Boynton Beach
38.0464066,-84.4970393,Lexington
30.3321838,-81.655651,Jacksonville
31.1799081,-83.7890632,Moultrie
26.9297836,-82.0453664,Punta Gorda
38.4011434,-82.5769366,Kenova
33.4709714,-81.9748429,Augusta
29.2108147,-81.0228331,Daytona Beach
26.3586885,-80.0830984,Boca Raton
39.7589478,-84.1916069,Dayton
32.0835407,-81.0998342,Savannah
26.1420358,-81.7948103,Naples
35.6009498,-82.5540161,Asheville
27.0997775,-82.4542633,Venice
37.5102098,22.37244,Τρίπολη
38.985043,-3.9287257,Ciudad Real
51.843306,16.5743698,Leszno
-2.5319224,-44.2933276,São Luis
55.7955391,38.4375968,Электросталь
55.8542528,38.4381641,Ногинск
43.3235642,-79.8011553,Burlington
43.6872468,-79.7611394,Brampton
43.5892854,-79.6441646,Mississauga
-33.5922949,-70.7044657,San Bernardo
35.0526641,-78.8783585,Fayetteville
43.1572851,-77.6152141,Rochester
43.0206785,-78.8783834,Tonawanda
37.0298687,-76.3452218,Hampton
42.8864468,-78.8783689,Buffalo
39.4862245,-75.0257241,Vineland
37.270973,-79.9414313,Roanoke
36.8531789,-75.9782428,Virginia Beach
40.518681,-78.394736,Altoona
35.79154,-78.7811169,Cary
39.952335,-75.163789,Philadelphia
34.5521113,-77.926098,Burgaw
37.2707028,-76.7074502,Williamsburg
38.7209436,-75.0760265,Rehoboth Beach
38.8951148,-77.0363716,Washington
36.7282096,-76.5835703,Suffolk
36.0726355,-79.7919754,Greensboro
36.8354258,-76.2982742,Portsmouth
38.3606736,-75.5993692,Salisbury
43.1706125,-78.6903133,Lockport
41.2459193,-75.88131,Wilkes-Barre
36.8468146,-76.2852183,Norfolk
37.227928,-77.4019268,Petersburg
34.2257282,-77.9447107,Wilmington
42.5311891,-75.5235167,Norwich
39.9448436,-75.1198694,Camden
39.6417629,-77.7199932,Hagerstown
33.6955167,-78.8817622,Myrtle Beach
39.6528654,-78.7625185,Cumberland
36.8190369,-76.2749399,Chesapeake
43.0481221,-76.1474244,Syracuse
38.029306,-78.4766781,Charlottesville
39.4020593,-75.0393368,Millville
35.9940329,-78.898619,Durham
36.9787588,-76.428003,Newport News
39.7459468,-75.546589,Wilmington
35.772096,-78.6386145,Raleigh
42.825611,-78.8233695,Lackawanna
39.1856588,-78.1633342,Winchester
52.5359777,17.5958862,Gniezno
39.3642852,-74.4229351,Atlantic City
42.6334247,-71.3161718,Lowell
40.8559314,-73.2006687,Smithtown
42.3604823,-71.0595678,Boston
41.8239891,-71.4128343,Providence
40.6639916,-74.2107006,Elizabeth
40.735657,-74.1723667,Newark
41.3072441,-72.9256547,New Haven
42.1014831,-72.589811,Springfield
43.3095187,-73.64401,Glens Falls
40.4862174,-74.4518173,New Brunswick
40.7298207,-73.2103934,Islip
40.7281575,-74.0776417,Jersey City
42.3750997,-71.1056157,Cambridge
39.9537359,-74.1979576,Toms River
40.9312099,-73.8987469,Yonkers
42.2625932,-71.8022934,Worcester
41.5581525,-73.0514966,Waterbury
40.868154,-73.425676,Huntington
40.9167654,-74.171811,Paterson
44.4723989,-73.2114941,Burlington
40.8656544,-73.5320685,Oyster Bay
44.3105322,-69.7793295,Augusta
40.2170575,-74.7429463,Trenton
44.8011669,-68.7710786,Bangor
41.0534302,-73.5387341,Stamford
43.6610277,-70.2548596,Portland
42.9956397,-71.4547891,Manchester
40.7792653,-72.9153827,Brookhaven
41.1670412,-73.2048348,Bridgeport
-26.5717226,148.7876982,Roma
-20.0743199,146.2613499,Charters Towers
46.055102,-71.9570622,Victoriaville
41.6433997,41.6337512,ბათუმი (Batumi)
44.0410835,43.0666626,Пятигорск
47.2248606,39.7022857,Ростов-на-Дону
-22.6604221,-43.0426162,Magé
56.4885921,84.9523238,Томск
-22.7554207,-42.8983121,Itaboraí
-22.8219014,-43.0309252,São Gonçalo
14.585672,121.1717845,Antipolo
42.343926,-3.696977,Burgos
41.9958279,21.4312256,Скопје
50.3470387,18.9231857,Bytom
39.2102119,45.4094332,Naxçıvan
-33.418186,149.5783451,Bathurst
-22.8832371,-43.1154552,Niterói
43.850514,25.9567682,Русе
56.1109131,69.4733654,Ишим
11.9347295,-85.9587686,Granada
12.1357464,-86.2745569,Managua
30.3455105,76.8372936,Ambala
66.5375387,66.6157469,Салехард
18.7902353,98.986986,เชียงใหม่
-41.1240674,175.070218,Upper Hutt
56.0082591,92.8702292,Красноярск
55.4543487,65.3218732,Курган
36.9560266,45.3878626,نقده
38.1970009,44.7680018,سلماس
43.0112898,-7.5587287,Lugo
-41.8681587,-73.8287965,Ancud
-53.1605848,-70.9082244,Punta Arenas
41.7185081,44.7884942,თბილისი (Tbilisi)
40.6788625,46.3565603,Gəncə
46.8390658,16.845429,Zalaegerszeg
43.7708,142.3649999,旭川市 (Asahikawa)
41.5577151,44.9910574,რუსთავი (Rustavi)
42.9962574,21.9480858,Leskovac
59.1286965,37.9163892,Череповец
-37.5622632,143.8607215,Ballarat
50.2806917,19.1349298,Sosnowiec
34.3418307,132.9069137,竹原市 (Takehara)
34.2489904,132.56549,呉市 (Kure)
34.3916058,132.4518156,広島市 (Hiroshima)
34.1671703,132.21964,岩国市 (Iwakuni)
56.6327144,47.8953961,Йошкар-Ола
44.6062704,40.1043183,Майкоп
42.9760793,47.4935758,Махачкала
46.3069981,44.2701877,Элиста
61.6689734,50.834958,Сыктывкар
54.1877469,45.1836899,Саранск
62.0339874,129.7444225,Якутск
51.7078797,94.4235529,Кызыл
53.7152883,91.4388763,Абакан
43.3200783,45.6861979,Грозный
57.7814713,14.1627548,Jönköping
53.0626972,158.6467983,Петропавловск-Камчатский
50.2657986,127.5497989,Благовещенск
46.3489385,48.0374537,Астрахань
56.1397,40.4132,Владимир
59.558853,150.8051261,Магадан
46.9574273,142.727438,Южно-Сахалинск
52.7296,41.4487,Тамбов
67.6379965,53.0068636,Нарьян-Мар
61.0026882,69.0247617,Ханты-Мансийск
48.7927686,132.9249289,Биробиджан
55.7420117,52.3992173,Набережные Челны
48.7790188,44.7840263,Волжский
61.2540052,73.3962717,Сургут
50.5508698,137.0207457,Комсомольск-на-Амуре
53.6323734,55.9522577,Стерлитамак
56.1632985,101.6112811,Братск
56.2382157,43.4617405,Дзержинск
47.710652,40.2112542,Шахты
51.2305134,58.4738184,Орск
52.5308397,103.8823946,Ангарск
60.9340439,76.58037,Нижневартовск
52.5352192,85.1799242,Бийск
53.8730301,86.6427311,Прокопьевск
69.3497275,88.2009686,Норильск
44.9986975,41.1252241,Армавир
55.1729794,59.6711413,Златоуст
56.404903,61.9204311,Каменск-Уральский
47.4120185,40.1065898,Новочеркасск
55.9205587,37.8340201,Королёв
42.8396323,132.8926599,Находка
47.5087417,42.1960235,Волгодонск
59.4080569,56.8050175,Березники
55.6783142,37.89377,Люберцы
53.3978748,55.8981006,Салават
55.0695805,60.107973,Миасс
43.7971321,131.9517783,Уссурийск
56.3583676,41.3140018,Ковров
55.0858764,38.779958,Коломна
56.905645,59.9433316,Первоуральск
55.6713316,37.2723696,Одинцово
44.6333559,41.9408684,Невинномысск
43.9143583,42.7237033,Кисловодск
54.2188995,49.6038982,Димитровград
56.1132356,47.5004371,Новочебоксарск
54.9156686,37.4231938,Серпухов
43.2427461,46.5808469,Хасавюрт
55.5738,42.0447,Муром
55.8083278,38.9790038,Орехово-Зуево
56.09923,54.2615113,Нефтекамск
55.7484202,38.0141025,Железнодорожный
47.7558238,39.9359914,Новошахтинск
56.2695111,90.4953761,Ачинск
52.613814,38.4884539,Елец
56.3089497,38.1360855,Сергиев Посад
61.0956949,72.6097159,Нефтеюганск
66.0840399,76.6697752,Новый Уренгой
53.0992438,49.9483631,Новокуйбышевск
54.4809722,53.4660062,Октябрьский
56.6031627,84.8810109,Северск
55.3985,43.8385,Арзамас
42.0576987,48.2938068,Дербент
54.0012318,86.6402004,Киселёвск
53.686445,88.0704615,Междуреченск
63.5624585,53.684243,Ухта
43.3570377,132.1853629,Артем
56.2059969,95.7067883,Канск
58.2012851,68.2505938,Тобольск
35.5200185,35.7781044,اللاذقية
34.8936203,35.8851686,طرطوس
53.1311169,29.2284285,Бобруйск
-3.1331055,-59.9856354,Manaus
31.7977307,34.652994,אשדוד
32.0193121,34.7804076,חולון
31.9635713,34.8101148,ראשון לציון
15.4992456,73.8282358,Panaji
13.6240122,123.1850318,Naga City
41.7689895,140.7236624,函館市 (Hakodate)
-28.5470523,150.3075193,Goondiwindi
9.9354829,-84.1027068,San José
13.696972,-89.1928301,San Salvador
-34.5668306,-59.109508,Luján
-35.4757179,-69.5853204,Malargüe
-37.9999965,-57.5500036,Mar del Plata
-32.895154,-68.84099,Mendoza
-38.9574756,-68.0549937,Neuquén
-36.8928868,-60.3200212,Olavarría
-31.7432607,-60.5171971,Paraná
-33.8963529,-60.5711143,Pergamino
-34.458733,-58.9138501,Pilar
-27.3665072,-55.8941895,Posadas
-26.7928815,-60.4393207,Presidencia Roque Sáenz Peña
-32.7116197,-60.7341243,Puerto General San Martín
-34.720278,-58.269444,Quilmes
-43.2999999,-65.1000001,Rawson
-33.1315202,-64.3510601,Río Cuarto
-51.6207418,-69.2166383,Río Gallegos
-35.4005052,-59.3349156,Roque Pérez
-32.9581132,-60.6590224,Rosario
-24.7913958,-65.4169479,Salta
-34.298889,-60.241944,Salto
-41.1417265,-71.2993226,San Carlos de Bariloche
-28.4689235,-65.7790753,San Fernando del Valle de Catamarca
-31.5358502,-68.5283829,San Juan
-32.7434258,-60.7496742,San Lorenzo
-33.3020357,-66.3357164,San Luis
-26.8303703,-65.2038133,San Miguel de Tucumán
-34.6168424,-68.3271603,San Rafael
-24.1967737,-65.2896074,San Salvador de Jujuy
-31.6184553,-60.7029753,Santa Fe
-36.6245088,-64.2853963,Santa Rosa
-27.7938509,-64.2623594,Santiago del Estero
-37.3213732,-59.1334196,Tandil
-54.8069332,-68.3073246,Ushuaia
-40.8124737,-62.9962234,Viedma
-38.7176804,-62.2654621,Bahía Blanca
-28.5108614,-59.04548,Bella Vista
-34.7613064,-58.2125517,Berazategui
-34.8612495,-57.9062315,Ensenada
-32.8166653,-60.7166716,Capitán Bermúdez
-38.9355475,-67.990978,Cipolletti
-31.3972539,-58.0173305,Concordia
-31.4010441,-64.1940223,Córdoba
-25.2800807,-65.4674157,Coronel Moldes
-33.2888045,-62.1891677,Corral de Bustos
-27.4717843,-58.8347648,Corrientes
-36.3150928,-57.6902209,Dolores
-34.875833,-57.8822221,Berisso
-30.9856574,-57.9194395,Federación
-26.181931,-58.1771174,Formosa
-32.7874256,-60.7295083,Fray Luis Beltrán
-34.9775147,-67.6890999,General Alvear
-39.0270851,-67.5750395,General Roca
-30.9830341,-64.4941177,La Cumbre
-30.7421245,-59.643307,La Paz
-29.4127298,-66.8559899,La Rioja
17.6125761,121.7327065,Tuguegarao
17.5729636,120.3867938,Vigan
9.1251581,125.5395522,Cabadbaran City
14.5906074,120.9799013,Manila
11.1174961,122.6432988,Passi City
13.2400886,123.53868,Ligao
15.666667,120.766667,Guimba
6.6833331,125.3333329,Hagonoy
14.7463718,120.9734034,Meycauayan
6.9613114,125.0858527,Makilala
15.4891397,120.9693062,Cabanatuan
15.7134749,120.9041184,Muñoz
15.2977722,120.9566122,Gapan
11.7089057,122.3640619,Kalibo
14.4837389,121.0147485,Parañaque
14.5266254,121.074403,Taguig
14.3265248,120.9362341,Dasmariñas
14.5774598,121.0334694,Mandaluyong
14.605052,121.0310217,San Juan
14.3131022,121.1055236,Santa Rosa
8.1553979,125.1304492,Malaybalay
9.5162047,123.1573434,Tanjay
6.5003729,124.843557,Koronadal City
6.9121922,126.1520315,Mati
14.6752002,120.957479,Malabon
7.0083491,125.0916892,Kidapawan City
18.0566516,120.5639567,Batac
11.049222,124.0107733,Bogo
14.4806043,120.9816327,Las Piñas
12.369168,123.623185,Masbate
14.6756066,120.5277175,Balanga
14.633138,121.0996864,Marikina
14.2031876,121.1623694,Calamba
14.6569825,120.9478036,Navotas
14.087084,121.146182,Tanauan
7.0878084,125.7400326,Island Garden City of Samal
6.7055236,121.9726402,Isabela City
14.3940614,121.0410436,Muntinlupa
17.2,120.45,Candon
16.6158966,120.3178177,San Fernando
16.1565721,119.9804539,Alaminos
12.9707848,124.0052543,Sorsogon City
-25.5352555,-54.5818917,Foz do Iguaçu
33.5137513,73.9027199,Kotli
38.2652895,-0.698765,Elche
-26.6595434,150.1839141,Miles
45.9646491,-66.6437529,Fredericton
46.0915426,-64.7952367,Moncton
47.0181604,-65.5093479,Miramichi
46.0934504,-64.7365297,Dieppe
47.625811,-65.6525135,Bathurst
54.6654427,86.1661141,Ленинск-Кузнецкий
5.416578,100.3302391,George Town
5.3983017,100.3702372,Butterworth
-10.2088378,31.188255,Kasama
-25.4356497,-49.2541945,Curitiba
-28.2166899,152.0274742,Warwick
18.3000259,99.5035932,ลำปาง
46.3318149,-72.5557583,Trois-Rivières
6.117816,102.2395824,Kota Bahru
33.8395188,132.7653521,松山市 (Matsuyama)
25.3726249,49.586973,Hofuf الهفوف
40.3568871,45.1259272,Գավառ (Gavar)
40.8791349,45.1475566,Իջևան (Ijevan)
40.8058919,44.4953293,Վանաձոր (Vanadzor)
45.3056879,-73.2533401,Saint-Jean-sur-Richelieu
40.4824186,-3.3647158,Alcalá de Henares
43.1409015,-80.265587,Brantford
40.4948788,44.7669102,Հրազդան (Hrazdan)
39.7591317,45.3320458,Եղեգնաձոր (Yeghegnadzor)
39.2009781,46.4287329,Կապան (Kapan)
55.9415755,98.0052496,Тайшет
39.8197675,46.7603436,Stepanakert
39.757369,46.7456788,Shusha
11.0085934,29.7155751,Kadugli كادوقلي‎
39.9584944,44.5512421,Արտաշատ (Artashat)
9.5410608,31.6504255,Malakal ملكال
-5.805398,-35.2080905,Natal
-3.7304512,-38.5217989,Fortaleza
37.77035,30.5556933,Isparta
34.3749141,73.4697554,Muzaffarabad
32.6286813,-115.4559144,Mexicali
-34.9854017,-71.2393591,Curicó
-34.1824902,-70.6510489,Machalí
-33.6084226,-70.9004734,Peñaflor
-33.6645926,-70.9305106,Talagante
-36.6066895,-72.1032697,Chillán
-32.7507426,-70.7251932,San Felipe
-33.2864213,-70.8729771,Lampa
-34.064506,-70.7263833,Graneros
-38.7399592,-72.590076,Temuco
-34.4087757,-70.8616739,Rengo
-32.8336683,-70.5981352,Los Andes
-37.7987261,-72.7087103,Angol
-33.9798788,-70.7122295,San Francisco de Mostazal
-33.8102479,-70.7388956,Paine
-35.0935511,-72.0196187,Curepto
-40.5740489,-73.1359325,Osorno
-32.9867318,-71.274032,Limache
-37.4703732,-72.3516594,Los Ángeles
-32.879984,-71.2488055,Quillota
-33.685678,-71.214386,Melipilla
-20.2140572,-70.1523546,Iquique
-34.5837722,-70.9891244,San Fernando
-34.170276,-70.7409643,Rancagua
-35.9670513,-72.3156036,Cauquenes
-33.2048762,-70.6756952,Colina
-36.61706,-72.9572712,Tomé
-32.9220036,-71.5159565,Concón
-45.5712029,-72.0685104,Coyhaique
-33.3628953,-70.734677,Quilicura
-35.8454041,-71.5981258,Linares
-22.4623825,-68.927377,Calama
-33.0468644,-71.3772422,Villa Alemana
-36.9812831,-73.1595036,Coronel
-33.6095279,-70.5754736,Puente Alto
-33.0500281,-71.4417784,Quilpue
-23.6463736,-70.3979234,Antofagasta
-33.7319246,-70.7419548,Buin
-18.4786617,-70.3210117,Arica
-28.5749387,-70.7617222,Vallenar
-34.3876573,-72.0043825,Pichilemu
-36.1414202,-71.8221521,Parral
-30.6029518,-71.2031592,Ovalle
-27.3664587,-70.3323001,Copiapó
-33.5172118,-70.7766796,Maipu
-36.4248842,-71.9580326,San Carlos
-33.0475721,-71.6153581,Valparaíso
-27.1496869,-109.4291245,Hanga Roa
-33.4079711,-70.5432071,Las Condes
-38.3829031,142.4882935,Warrnambool
43.2919702,68.2305287,Туркестан
42.3145193,69.588614,Шымкент
52.2156756,5.9639463,Apeldoorn
42.2712502,42.7037953,ქუთაისი (Kutaisi)
33.0267486,73.5999837,Dina
-45.8733601,-67.5195695,Comodoro Rivadavia
40.6335347,48.6398439,Şamaxı
22.9329995,57.5306909,Nizwa
24.368889,56.743889,Sohar
22.566667,59.528889,صور
17.0148202,54.0957066,Salalah صلالة
22.690278,58.546944,Ibra
23.612386,58.5938846,مسقط
39.9268106,48.9182179,Əli Bayramlı
40.7653175,47.0512947,Mingəçevir
41.1999786,47.1796374,Şəki
52.7952408,18.2595624,Inowrocław
40.4587773,-3.4793374,Torrejón de Ardoz
-9.479082,147.1498377,Port Moresby
39.6461735,47.918551,Pars abad
39.9859954,-0.0374354,Castelló de la Plana
35.837735,50.976673,کرج
35.8715311,47.6022657,بیجاڕ
53.2005386,5.7918811,Leeuwarden
52.0799047,4.3095222,Den Haag
52.0959423,5.1104136,Utrecht
52.1598645,4.4824271,Leiden
51.7958082,4.6778493,Dordrecht
52.5089759,6.0943765,Zwolle
47.5832709,-52.7239306,St. John's
7.6999269,27.9910035,Wau واو
8.5341803,39.2650621,Adama
25.85091,98.8560599,六库
47.3685586,8.5404434,Zürich
51.5215805,6.9292036,Bottrop
50.0832999,8.2499998,Wiesbaden
52.0191887,8.5313701,Bielefeld
50.9776268,11.0329359,Erfurt
48.2048036,15.624893,St. Pölten
50.7742933,6.0816445,Aachen
48.8908846,8.7029532,Pforzheim
51.3340369,6.5592502,Krefeld
-31.7737829,-52.360375,Pelotas
51.5431133,7.0711688,Gelsenkirchen
51.4334338,6.7497693,Duisburg
52.2667002,8.0499998,Osnabrück
49.4093608,8.6948125,Heidelberg
49.4897239,8.4672976,Mannheim
51.1911458,6.4417084,Mönchengladbach
51.1798706,7.1943544,Remscheid
50.0887662,8.7662861,Offenbach am Main
51.1833,7.08333,Solingen
52.4,13.0666999,Potsdam
49.8727746,8.6511775,Darmstadt
51.0493286,13.7381437,Dresden
48.3665283,10.8837144,Augsburg
50.9331401,11.5833091,Jena
50.8772301,12.0796208,Gera
51.2666575,7.1832976,Wuppertal
47.9949985,7.8646903,Freiburg im Breisgau
49.4432174,7.7689951,Kaiserslautern
51.4833001,7.2166699,Bochum
50.3532028,7.5943348,Koblenz
52.5170397,13.3888548,Berlin
51.3573015,7.4610436,Hagen
51.3405087,12.3746816,Leipzig
51.6783151,7.810083,Hamm
51.7177044,8.752653,Paderborn
51.5336849,9.934507,Göttingen
49.9999952,8.2710237,Mainz
49.0140679,8.4044366,Karlsruhe
49.0157698,12.0952438,Regensburg
49.4792355,8.4391173,Ludwigshafen am Rhein
47.7264273,10.3169236,Kempten
51.2235376,6.7637565,Düsseldorf
39.4751552,-6.3714132,Cáceres
40.0681156,-2.1348241,Cuenca
36.5216471,-6.2826008,Cádiz
36.8414197,-2.4628135,Almería
38.8788801,-6.9704911,Badajoz
39.8578174,-4.0253813,Toledo
40.3436719,-1.1081939,Teruel
41.7633842,-2.4642041,Soria
40.9651572,-5.6640182,Salamanca
42.0107054,-4.5327631,Palencia
37.256667,-6.9495699,Huelva
42.1381927,-0.4080604,Huesca
37.1828918,-3.6028135,Granada
42.8943882,71.3920902,Тараз
27.7436953,98.6647516,贡山
-21.1663604,27.5025148,Francistown
49.8094091,73.1025726,Караганда
52.2823666,76.9613215,Павлодар
49.9564881,82.6119256,Усть-Каменогорск
42.9894583,-81.2460912,London
43.1316457,-80.7470783,Woodstock
43.0391555,-80.8828849,Ingersoll
50.2765581,57.2114296,Актобе
54.8629255,69.1615712,Петропавловск
50.0549197,72.9606114,Темиртау
44.8575482,65.4932971,Кызылорда
53.2782246,69.3927867,Кокшетау
52.9656983,63.1349969,Рудный
45.0005123,78.3761119,Талдыкорган
33.9814509,73.7760385,Bagh
55.1930088,30.2059467,Витебск
53.126662,26.02311,Барановичи
52.1210315,26.0762972,Пинск
54.0990834,28.3423116,Жодино
-29.7655123,-57.0829466,Uruguaiana
-20.2981058,-40.3041266,Vitória
51.2788733,108.8453025,Петровск-Забайкальский
4.7581592,-6.641549,San Pédro
12.9164198,79.1361944,Vellore
43.9105516,81.322051,伊寧 (Yining)
-20.1637219,57.5045328,Port Louis
56.0873642,63.6294829,Шадринск
-26.3257447,31.144663,Mbabane
-16.6801564,-49.2566208,Goiânia
-10.9162061,-37.0774655,Aracaju
-9.6476843,-35.7339264,Maceió
56.6517125,66.3029181,Ялуторовск
56.4956947,66.556883,Заводоуковск
35.8615216,139.6458393,さいたま市 (Saitama)
55.5630463,71.3524327,Называевск
32.0898006,72.6782574,Sargodha
31.7219942,72.9800348,Chiniot
41.1661685,80.2755111,阿克苏 Aksu ئاقسۇ
38.416667,115.316667,安国市
32.699661,109.0218858,安康市
31.3182172,113.6534767,安陆市
24.9248708,102.4844287,安宁市
36.296667,119.1775,安丘市
30.5119718,117.0429659,安庆市 (Anqing)
26.2496958,105.9277805,安顺市
41.1095271,122.9900887,鞍山市
36.1023552,114.33633,安阳市
39.7133298,76.1698676,Artux
45.437222,123.151389,白城市
36.5519459,104.1466384,白银市
38.8666514,115.4833263,保定市
40.660201,109.8303243,包头市
34.3674346,107.1749927,宝鸡市
39.1,116.4,霸州市
21.4799081,109.1068061,北海市
41.5695757,107.4948514,巴彦淖尔市
41.2808849,123.7941704,本溪市
41.5961111,121.792778,北宁市
32.9423159,117.3503508,蚌埠市
41.863056,120.792778,北票市
27.449347,105.356027,毕节市
44.9833141,81.9500033,Bole Shi
37.3825083,118.0163414,滨州市
38.066667,116.566667,泊头市
23.8998082,106.6166323,百色
38.316667,116.866667,沧州市
34.220281,113.7637651,长葛市
25.9646603,119.5127975,长乐市
43.8944401,125.3140927,长春 Changchun
29.040525,111.6781103,常德市
26.3227743,112.4273725,常宁市
41.5702826,120.4586072,朝阳市
23.8380002,116.7693525,潮州市
36.854566,119.393867,昌邑市 (Chāngyì)
31.7895257,119.9388011,常州市
31.4313562,117.8321415,巢湖市
36.4556436,112.8843552,长治市
25.9495755,113.2479004,郴州市
42.2724253,118.9670743,赤峰市
40.9725,117.936111,承德市
30.6765038,104.0613634,成都市 (Chengdu)
30.7330277,103.5637036,崇州市
28.5914382,105.6956747,赤水市
23.5512714,113.5827625,从化市
30.183333,121.233333,慈溪市
24.8719547,101.3873543,楚雄市
32.6008384,118.0881311,滁州市
33.2019957,120.4564759,大丰市
46.5969028,125.1014811,大庆市
40.1054595,113.2853856,大同市
31.2152403,107.4981539,达州市
40.1287415,124.3870087,丹东市
30.8311645,111.8333696,当阳市
32.5387834,111.5113553,丹江口市
19.5146417,109.5703801,儋州市
31.9996886,119.5769389,丹阳市
34.4571942,113.0280304,登封市
41.4276777,123.3177492,灯塔市
32.6888657,112.0837091,邓州市
28.9507073,117.5765054,德兴市
37.4486676,116.305416,德州市
30.1496687,114.9392073,大冶市
29.1230921,110.4836703,张家界市
44.5315703,125.7003837,德惠市
22.9495258,113.9340502,东莞市
39.8789142,124.1458478,东港市
19.1137235,108.6595219,东方市 (Dongfang)
32.8536216,120.3122464,东台市
35.5815951,104.6199648,定西市
38.513056,114.995556,定州市
30.3527488,109.5085057,恩施市
26.190084,107.449547,都匀市
30.4883152,114.779787,鄂州市
43.6473606,111.9805906,二连浩特市
29.267778,120.225278,东阳市
37.4320418,118.6543828,东营市
43.35,128.216667,敦化市
28.1296862,115.8626509,丰城市
29.6609939,121.4009873,奉化市
36.1841443,116.7653466,肥城市
40.4542503,124.0651436,凤城市
27.3324177,120.2100043,福鼎市
47.2471984,132.6309698,富锦市
37.2674518,111.7831355,汾阳市
27.0912322,119.6435108,福安市
23.0226358,112.9630218,佛山市
40.4261953,113.1484886,丰镇市
40.29,122.500278,盖州市
26.0792078,119.2957071,福州市 Fuzhou
27.5022322,116.415177,抚州市
30.0532426,119.9546804,富阳市
32.9038145,115.8175902,阜阳市
42.0158373,121.6519105,阜新市
41.801944,124.745278,抚顺市
26.804999,107.457974,福泉市
25.7232297,119.374055,福清市
23.3817678,103.1537158,个旧市
32.7875425,119.4326277,高邮市
23.0302295,112.4561939,高要市
35.8087978,112.9049366,高平市
36.3820785,119.7609824,高密市
25.8629902,114.9403044,赣州市
38.033611,114.828611,藁城市
28.4233475,115.3760822,高安市
25.276006,110.2847529,桂林
26.5814112,106.7052544,贵阳市
28.289114,117.2104189,贵溪市
35.93495,106.2326685,固原市
32.187328,115.662202,固始县
43.5025009,124.8127196,公主岭市
31.0019579,104.2960851,广汉市
23.1229013,113.2529963,广州市 (Guăngzhōu)
30.9969378,103.6216424,都江堰市
33.07901,107.0293218,汉中市
24.6973047,108.0476713,河池市
35.694722,114.351667,鹤壁市
29.9933317,106.2596622,合川市
47.3319325,130.2788481,鹤岗市 (Хэган)
38.433333,116.083333,河间市
35.6312322,110.71173,河津市
42.516667,129,和隆市
40.851944,122.741667,海城市
20.0423626,110.3409936,海口市
44.8029433,129.3502303,海林市
47.3872542,126.8558235,海伦市
31.894673,121.1732307,海门市
30.533333,120.683333,海宁市
36.7794304,121.1571987,海阳市 (hǎiyáng)
35.575278,110.361389,韩城市
42.8393058,93.5042928,哈密 / قۇمۇل
36.583333,114.483333,邯郸市
30.6504956,113.6836229,汉川市
30.2665645,120.1493348,杭州 (Hangzhou)
35.6254159,111.362708,侯马市
37.1127311,79.9362064,和田县 (Hétián) خوتەن‎
27.1943337,109.8139554,洪江市
30.0126569,113.5292421,洪湖市
33.5896837,119.0212439,淮安市
32.6604304,117.0250917,淮南市
27.5590505,109.9635129,怀化市
33.7255842,116.763279,淮北市
42.9668353,126.7936595,桦甸市
23.8106804,108.8762235,鹤山市
22.7688065,112.9586395,鹤山市
37.732222,115.701111,衡水市
40.8337963,111.6730788,呼和浩特市
23.9736174,114.9858457,河源市
35.2477266,115.4464761,菏泽市
35.4625141,113.7976228,辉县市
21.6516763,110.6404799,化州市
42.866667,130.3499999,珲春市
42.3062064,127.2956027,白山市
38.080556,114.296111,鹿泉市
29.7125012,118.3215698,黄山市
23.1390839,114.424149,惠州市
29.9793547,115.1141664,黄石市
30.8750379,115.3867905,黄冈市
38.366667,117.333333,黄骅市
30.3843078,106.775599,华蓥市
34.5310787,110.0783629,华阴市
30.3915544,104.5532107,简阳市
27.3293185,118.1141985,建阳市
43.7190043,127.3389561,蛟河市
41.1241078,126.1831493,集安市
36.2904073,120.0101348,胶州市
32.8045795,118.0948769,明光市
31.9080727,120.2635318,江阴市
28.739167,118.622778,江山市
27.0359781,118.3177479,建瓯市
31.8990485,104.8621232,江油市
27.0379471,114.8028257,吉安市
29.4775,119.272222,建德市
32.4286378,119.5574255,江都市
30.8674731,120.1001328,湖州市
36.5862656,111.8213111,霍州市
39.461417,108.8094635,鄂尔多斯市
29.107778,120,金华市
30.3532564,112.1867805,荆州市 (jīngzhōu)
35.4125047,116.5849266,济宁市
24.8158786,118.5758761,晋江市
29.6304023,111.8772834,津市市
22.074059,100.9145067,景洪市
32.0165721,120.2693683,靖江市
31.1124369,112.6431015,荆门市
38.5154898,102.2015065,金昌市
36.6458927,117.0128403,济南市 (Jinan)
36.3912177,120.4502879,即墨市 (Jímò)
35.6036187,112.692568,晋城市
29.2909294,117.204121,景德镇市
26.5782937,114.1691246,井冈山市
30.7649216,120.7442922,嘉兴市
37.0231429,111.9160031,介休市
33.2619055,115.3540362,界首市
43.8452232,126.5476686,吉林
23.3286089,116.1718045,普宁市
45.5978301,84.8751348,克拉瑪依 Karamay Shi قاراماي
42.625278,124.1225,开原市
26.5905345,107.9669697,凯里市
34.7961106,114.3472038,开封市
31.9457106,119.1676967,句容市
35.0945453,112.5810521,济源市
37.562222,115.558889,冀州市
35.427222,114.103889,卫辉市
44.163611,125.959444,九台市
40.6487883,96.6647884,酒泉市
29.7090171,115.9916135,九江市
28.3201973,109.7316848,吉首市
43.667661,122.2153432,通辽市
41.494444,121.615278,锦州市
37.6779725,112.744834,晋中市
40.7489684,120.8511978,葫芦岛市
41.1703516,121.3535697,凌海市
38.033333,115.033333,晋州市
31.741984,119.5752169,金坛市
29.5608755,103.7619922,乐山市
26.40396,112.9340665,耒阳市
27.6686694,111.454788,冷水江市
37.675278,117.178056,乐陵市
28.9716573,117.1251351,乐平市
29.213611,119.486667,兰溪市
32.3867421,111.6687488,老河口市
36.0413282,103.8579555,兰州市
25.1313491,113.3470997,乐昌市
31.5866697,105.9743103,阆中市
39.516667,116.683333,廊坊市
36.2036496,117.6768055,莱芜市
36.8618279,120.5158492,莱西 (Láixī)
36.9794733,120.7013712,莱阳市 (Láiyáng)
31.3852381,120.952182,昆山市 Kunshan
25.049097,102.7081773,昆明市
44.4195345,84.9093735,
39.4721571,75.9844248,喀什 قەشقەر‎
41.7613869,86.144541,库尔勒
35.071582,118.339565,临沂市
35.5920192,103.2071729,临夏市
36.0325,113.906944,林州市
29.4746532,113.4791419,临湘市
28.1439159,113.6232579,浏阳市
24.3161021,109.405756,柳州市
28.4531469,119.9092889,丽水市
42.7674811,129.4149054,龙井市
37.6443914,120.5219954,龙口市 (Lóngkǒu)
24.4501615,117.8107815,龙海市
31.4299774,119.4873723,溧阳市
25.0982166,117.0306623,龙岩市
28.0751884,119.1218944,龙泉市
33.387124,104.9313723,陇南市
24.9431793,112.4781894,连州市
27.6897166,111.6729618,涟源市
34.6092633,119.1695305,连云港市
36.4502778,115.9832852,聊城市
41.273974,123.185824,辽阳市
21.609612,110.2833464,廉江市
27.6590386,113.5059332,醴陵市
23.9480307,99.5512428,临沧市
30.233333,119.716667,临安市
36.0941478,111.5150764,临汾市
42.967778,125.323889,辽源市
30.2873589,108.9216936,利川市
37.9100931,106.5507001,灵武市
34.5227346,110.8704085,灵宝市
25.7632167,111.7772198,永州市
34.179167,112.815,汝州市
28.85,121.116667,临海市
41.115,119.256389,凌源市
36.8459198,115.7118439,临清市
42.4875,125.768056,梅河口市
24.3053552,116.1177436,梅州市
34.9065165,112.7808419,孟州市
28.806462,113.0744574,汨罗市
31.3413886,104.1979778,绵竹市
31.9112072,104.7535923,绵阳市
45.5001725,132.0457339,密山市
34.5307313,113.3761237,新密市
27.7529326,111.6763839,娄底市
31.7553,116.4988489,六安市
36.3334278,113.2368513,潞城市
22.9824391,115.7485476,陆丰市
37.7356348,111.3053791,吕梁市
33.5720554,114.0285163,漯河市
34.6556873,112.4209629,洛阳市
26.240153,104.751821,六盘水市
31.178861,115.0302282,麻城市
28.8871236,105.4463439,泸州市
31.696178,118.5227702,马鞍山市
26.6655699,119.5224895,宁德市
43.9514942,129.2543229,宁安市
29.8720259,121.549887,宁波市
30.698889,121.012778,平湖市
33.7481636,113.2971321,平顶山市
36.7865116,119.953212,平度
31.1140801,103.9218926,彭州市
37.8137692,120.7599494,蓬莱市 (Pénglái)
26.5847815,101.7206643,攀枝花市
41.131667,121.993611,盘锦市
43.070278,126.148056,磐石市
32.0370824,118.7741854,南京
37.358056,115.374444,南宫市
28.6965374,115.8979149,南昌市
24.9958325,118.4074901,南安市
30.7955696,106.0835539,南充市
44.1041751,130.0501368,穆棱市
29.5892089,105.0581721,内江市
32.0074686,120.8489705,南通市
25.1192792,114.3064615,南雄市
33.0010496,112.5292693,南阳市
25.8085665,114.7232862,南康市
27.3039819,118.198061,南平市
28.0353411,115.4217992,樟树市
37.9434444,105.9650144,青铜峡市
31.8127933,121.656138,启东市
36.0895093,120.3497193,青岛市 (qīngdǎo)
19.2438517,110.4634101,琼海市
30.416667,103.4081534,邛崃市
45.8073819,131.0936014,七台河市
24.2759612,112.8722563,清远市
36.2443882,107.5998298,庆阳市
35.0925791,112.9341595,沁阳市
26.732666,106.348323,清镇市
39.931667,119.588333,秦皇岛市
36.663333,118.4575,青州市
22.1123907,106.7577653,凭祥市
27.5781264,113.8700896,萍乡市
34.3142567,117.9419078,邳州市
35.5410175,106.6798544,平凉市
40.0072248,118.6913843,迁安市
30.4219671,112.8926128,潜江市
25.4342199,119.0074625,莆田市
29.7268981,113.8861511,赤壁市
27.231505,111.4524988,邵阳市
27.2295187,117.4887638,邵武市
29.9894361,120.5685689,绍兴市
23.3652979,116.6948819,汕头市
24.8063723,113.5834118,韶关市
22.5462321,114.0570068,深圳市 (Shēnzhèn)
38.016667,115.55,深州市
29.595833,120.816667,嵊州市
36.833333,114.55,沙河市
44.8604923,128.4188059,尚志市
30.0164619,120.8659383,上虞市
33.8678555,109.9353876,商洛市
34.4339749,115.6518394,商丘市
28.4483545,117.9684823,上饶市
24.0093056,97.858572,瑞丽市
25.8787449,116.0274359,瑞金市
27.7815938,120.6291659,瑞安市
29.6755033,115.6558998,瑞昌市
32.3926766,120.563809,如皋市
37.1613899,122.4178157,荣成市 (Róngchéng)
26.2853839,117.3366856,三明市
34.7883613,111.1913908,三门峡市
39.9839886,117.0733273,三河市
36.9136248,121.525514,乳山市 (Rǔshān)
35.5959895,116.9812927,曲阜市
24.9038801,118.5851458,泉州市
37.3079705,120.8305232,栖霞市 (Qīxiá)
35.3979052,119.5290707,日照市
38.716667,116.083333,任丘市
27.885688,106.444535,仁怀市
28.9657792,118.8648514,衢州市
31.4545892,121.1057705,太仓市
37.8676917,112.5393237,太原市
32.1694795,120.0165666,泰兴市
28.6836428,121.4444622,台州市
32.4849554,119.9117284,泰州市
39.633333,118.183333,唐山市 (Tangshan)
46.8804664,126.8087066,绥化市
44.393065,131.1541322,绥芬河市
31.9209211,113.465844,随州市
33.9564492,118.2945375,宿迁市
33.8696999,117.2056897,宿州市
46.7464342,82.9780902,Tacheng
36.1945445,117.1039464,泰安市
44.4200384,126.9499142,舒兰市
46.5227207,132.6455163,双鸭山市
23.2594301,100.6510558,思茅市
43.614167,124.45,四平市
30.1757837,111.7770205,松滋市
38.041389,114.4786108,石家庄市
44.2986426,86.0311805,石河子 شىخەنزە
31.224856,104.0346081,什邡市
29.7291359,112.4029022,石首市
36.8762356,118.7322549,寿光
32.4526904,110.5608121,十堰市
38.9944325,106.5160381,石嘴山市
43.786111,123.792222,双辽市
37.1960899,122.0479985,文登市 (Wéndēng)
28.3675,121.373611,温岭市
19.5420707,110.8047733,文昌市
36.7055263,119.103416,潍坊市 (Wéifang)
37.5122725,122.1157835,威海市 (Wēihǎi)
34.936944,109.735,渭南市
18.7962946,110.3838926,万宁市
32.0701787,108.0359698,万源市
43.8059382,87.6055852,ئۈرۈمچى (乌鲁木齐)
39.6306033,121.9987734,瓦房店市
42.9479104,89.1818591,吐鲁番市
41.7789166,112.3485758,乌兰察布市
42.966667,129.816667,图们市
30.633333,120.566667,桐乡市
18.7781595,109.5142273,五指山市
27.7223474,109.1838348,铜仁市
30.9338577,117.8085531,铜陵市
42.123889,125.848333,通化市
47.8585953,133.0573304,同江市
35.1112142,109.0970984,铜川市
31.0529487,116.9534843,桐城市
46.7488443,128.5372027,铁力市
42.625833,124.323611,铁岭市
42.413056,123.605833,调兵山市
34.5785694,105.7156047,天水
30.6515905,113.1603424,天门市
39.1209891,117.208214,天津市 (Tianjin)
32.7377771,118.91767,天长市
43.9450508,116.0800304,锡林浩特
39.333333,115.85,高碑店市
27.8898704,101.9796695,西昌市
29.2688773,88.8786641,日喀则市
34.2620635,108.9423748,西安
30.3736984,113.4403842,仙桃市
29.666092,114.2638935,咸宁市
31.1764129,113.922434,孝感市
34.3359953,108.7173419,咸阳市
37.0854338,111.6338191,孝义市
33.4430697,114.9031316,项城市
32.0181128,112.1806597,襄樊市
27.8595302,112.8995403,湘潭市
27.7335125,112.5172631,湘乡市
24.483445,118.1056181,厦门市
31.5753208,120.2949075,无锡市
37.9251159,102.6260784,武威市
31.1617157,120.6386145,吴江市
31.3425803,118.3536912,芜湖市
39.4435287,106.9001326,乌海市
30.5959751,114.2993552,武汉市 (Wuhan)
44.717299,127.4472345,五常市
36.6934089,114.1973429,武安市
28.0221989,120.648392,温州市
26.7277472,110.6295542,武冈市
30.7028122,111.2788242,宜昌市
31.6827101,112.3488194,宜城市
27.8032006,114.3918199,宜春市
30.2874213,111.3803381,宜都市
28.7657927,104.6353116,宜宾市
37.5352544,121.389225,烟台市 (Yāntái)
35.5556392,116.8243942,兖州市
42.8958875,129.508624,延吉市
37.3282866,106.5131469,吴忠市
29.311254,120.0709185,义乌市
28.2098951,117.1056548,鹰潭市
43.9,81.35,Yining Shi
24.1979875,113.2724809,英德市
30.9641686,113.5830615,应城市
40.634167,122.508056,大石桥市
40.376944,122.523889,营口市
34.7454924,111.8661916,义马市
34.8704769,110.4438982,永济市
28.883333,120.033333,永康市
33.937026,116.3663081,永城市
25.901293,117.3207009,永安市
28.5874116,112.3517104,益阳市
31.3605382,119.785324,宜兴市
28.1259515,120.9584124,乐清市
36.922222,116.613056,禹城市
38.8516147,112.6804982,原平市
28.8422899,112.3785747,沅江市
25.9078145,111.8239061,永州市
25.0917444,104.8974498,兴义市
34.7899788,113.3809573,荥阳市
36.6219037,101.7729898,西宁市
39.4011493,121.9676679,普兰店市
40.6193247,120.7081732,兴城市
32.9325092,119.8321293,兴化市
24.2619707,115.7390388,兴宁市
34.2989698,108.4738726,兴平市
37.063056,114.494167,邢台市
34.3971133,113.7336778,新郑市
27.8390632,114.8459095,新余市
34.3759105,118.3490885,新沂市
41.993936,122.8156775,新民市
37.902778,115.203611,辛集市
38.349167,114.666667,新乐市
35.89,117.564722,新泰市
35.3092685,113.8650857,新乡市
22.3563341,110.9407826,信宜市
32.127372,114.0676596,信阳市
34.0316195,113.8237291,许昌市
26.2230911,104.0954211,宣威市
30.9470283,118.7577244,宣城市
38.1110507,113.4962845,阳泉市
21.8526328,111.95935,阳江市
22.170242,111.7871708,阳春市
32.3926973,119.4365759,扬州
32.2231183,119.8830625,扬中市
36.59631,109.4850203,延安市
34.2683747,117.1976092,徐州市 (Xuzhou)
29.3593272,102.6479851,
33.3939707,120.1349541,盐城市
39.4830388,115.9688632,涿州市
32.9779289,114.0330932,驻马店市
29.716111,120.234167,诸暨市
27.0498118,113.5508704,株洲 市
39.6963769,122.9703398,庄河市
30.2406915,122.3869085,舟山市
22.1760613,113.313866,珠海市
36.002222,119.431944,诸城市
29.35702,104.7610274,自贡市
36.650278,118.001667,淄博市
25.930702,113.4875166,资兴市
35.4027214,116.9681797,邹城市
28.154688,107.074807,遵义市
31.6183291,113.8239785,广水市
29.8510364,115.5532659,武穴市
38.4602903,112.6937671,忻州市
39.5927372,112.5413393,朔州市
29.3560665,113.1161658,岳阳市
22.6354097,110.1498186,玉林市
38.2918991,109.7502417,榆林市
35.2180391,111.0537155,运城市
40.2863464,97.0326646,玉门市
44.8231858,126.5414664,榆树市
34.1598968,113.4666612,禹州市
24.1307251,102.0329865,玉溪市
30.05,121.15,余姚市
34.8681906,117.5532645,枣庄市
32.079021,112.7602106,枣阳市
31.8664895,120.5426833,张家港市
25.2976397,117.4133719,漳平市
40.8236135,114.884129,张家口市
24.5174597,117.6586363,漳州市
38.9311885,100.4508213,张掖市
36.718628,117.522179,章丘市
23.0515551,112.4728451,肇庆市
46.07205,125.9871513,肇东市
21.2020013,110.4040585,湛江市
37.354722,120.402222,招远市
32.2139599,119.458012,镇江市
34.7591877,113.6524076,郑州市
30.4286242,111.7431424,枝江市
31.2465838,112.621954,钟祥市
33.6306299,114.6423617,周口市
22.5215953,113.3653287,中山市
30.0474046,103.8284264,眉山市
30.1235983,104.6481144,资阳市
30.4591677,106.6331958,广安市
32.441842,105.8323505,广元市
31.8604839,106.768672,巴中市
30.5288208,105.5776857,遂宁市
37.3697875,97.3595496,德令哈市
31.1244028,104.39013,德阳市
38.467292,106.2748368,银川市
36.985074,105.4965865,中卫市
37.9065072,112.1718055,古交市
34.970301,103.0080892,合作市
32.5059492,120.1448446,姜堰市
27.7600338,118.016188,武夷山市
24.7233785,118.702651,石狮市
30.3044441,117.4136862,池州市
33.5099051,116.2129153,毫州市
27.9284096,112.5210269,照山市
31.6434085,120.7408552,常熟市
31.2984758,120.622239,苏州
33.2830147,113.489139,舞钢市
35.813333,115.155,濮阳市
34.7325867,113.6428613,二七区
42.013611,126.782222,临江市
44.887778,124.397222,松原市
20.9076779,110.0932095,雷州市
23.0458798,115.523056,汕尾市
23.7379776,114.692015,河源
35.0830599,117.153469,滕州市
37.1823043,119.9325123,莱州
23.02804,113.1041238,Foshan
7.210187,124.245051,Cotabato City
-41.4338399,147.1373499,Launceston
-24.8653253,152.3516785,Bundaberg
46.7910096,-71.1753274,Lévis
39.6547869,66.9758026,Samarqand
38.8442225,65.7931396,Qarshi
40.3777852,71.7928621,Fargona (Fergana)
41.0005034,71.6686208,Namangan
37.2226659,67.2788423,Termiz
8.5058006,76.957393,Thiruvananthapuram
8.7298141,77.6854363,Tirunelveli
8.8054131,78.144878,Tuticorin
8.8845184,76.5942355,Kollam
9.4980634,76.3325454,Alappuzha
10.5248008,76.2144981,Thrissur
11.0028346,76.9611752,கோயம்புத்தூர் (Coimbatore)
11.1001404,77.3504841,Tiruppur
11.93213,79.8279208,Puducherry
12.8683751,74.8591937,Mangaluru
13.341359,74.7391199,Udupi
13.8248015,77.4895008,Hindupur
13.8409422,75.7049579,Bhadravati
13.9325281,75.5708496,Shivamogga
14.4423989,79.986562,Nellore
14.4656609,78.8168106,Cuddapah
15.4264339,75.6299112,Gadaga
15.4479379,75.0091439,Dharwada
15.6253313,77.2730894,Adoni
16.5083859,80.6172752,Vijayawada
16.5381761,81.5352293,Bhiamavaram
16.8266408,75.7201289,Bijapura
16.8525,74.5683,Sangli
16.9436426,82.233514,Kakinada
17.0048598,81.7801814,Rajahmundry
17.3376,76.8245,Gulbarga
17.3616227,78.4747305,Hyderabad
17.6715272,75.8975502,Solapur
17.688321,74.0041726,Satara
17.7327144,83.2844142,Visakhapatnam
17.8645956,76.9517347,Basavakalyana
17.9142593,77.5245329,Bidara
18.007197,79.565029,Warangal
18.1152,83.3982,Vizianagaram
18.398809,76.5619342,Latur
18.436,79.1423,Karimnagar
18.6719138,78.098504,Nizamabad
18.8727969,79.4369564,Mancheral
18.9904059,75.7542291,Beed
19.092952,74.7493451,Ahmadnagar
19.8431329,75.8890539,Jalna
19.8813,75.3045,Aurangabad
20.010306,73.7892625,Nashik
20.4686,85.8792,Cuttack
20.5481397,74.5191938,Malegaon
20.7116604,77.002632,Akola
20.898,74.7732,Dhule
20.9057,70.3781,Veraval
20.9330392,77.7573107,Amravati
21.1882864,81.2826581,Durg
21.3045,76.2267,Burhanpur
21.6409,69.611,Porbandar
21.7279,73.0121,Bharuch
21.7643,72.1407,Bhavnagar
21.8205346,76.3568299,Khandwa
22.0574023,78.9414161,Chhindwara
22.0895425,82.1437866,Bilaspur
22.2389,84.8009,Rourkela
22.2954158,73.1961083,Vadodara
22.3038512,70.8021228,Rajkot
22.34309,87.3012875,খড়্গপুর (Kharagpur)
22.5698858,88.3461998,Kolkata (কলকাতা)
22.5585986,72.9621513,Anand
22.6894333,72.871495,Nadiad
22.7171,75.8661,Indore
23.0223707,72.5989006,અમદાવાદ (Ahmedabad)
23.1607334,79.949055,जबलपुर (Jabalpur)
23.174597,75.7851423,Ujjain
23.2604728,77.3934611,भोपाल (Bhopal)
23.3608001,85.3379997,Ranchi
23.6866074,86.9737526,আসানসোল (Asansol)
23.7580602,92.7337179,Aizawl
23.8323292,91.2831251,Agartala
23.8405,78.7526,Sagar
24.1701,72.4408,Palanpur
24.5359,81.2934,Rewa
24.5720843,73.7016537,उदयपुर (Udaipur)
24.6915,78.421,Lalitpur
24.7970411,85.0041735,Gaya
25.17364,75.8574368,कोटा (Kota)
25.2256,88.7799,Balurghat
25.2499,86.982,Bhagalpur
25.348,74.636,भीलवाड़ा (Bhilwara)
25.4386049,81.8339567,इलाहाबाद (Allahabad)
25.5621,84.6755,Ara
25.5765948,91.8750958,Shillong
25.661866,94.101197,Kohima
25.7682376,73.3275135,Pali
25.7784,84.7512,चप्रा (Chhapra)
26.0274,89.9852,Dhuburi
26.0861673,74.3159903,Beawar
26.1582,75.7873,Tonk
26.2989301,73.0334001,Jodhpur
26.3472094,92.6858166,Nagaon
26.4691,74.639,अजमेर (Ajmer)
26.7789,82.1427,Faizabad
26.8023,84.5074,Bettiah
26.8381,80.9346001,Lucknow
27.1016173,93.6297159,Itanagar
27.1499,78.3943,फिरोजाबाद (Firozabad)
27.5617276,80.6693884,सीता पुर (Sitapur)
27.5730673,76.6141086,अल्वार (Alwar)
27.8815412,78.0690216,अलीगढ (Aligarh)
28.0227481,73.3167805,Bikaner
28.127,75.3986,Jhunjhunun
28.3522041,79.4094221,बरैली (Bareilly)
28.3771,77.826,बुलन्दसहर (Bulandshahr)
28.4033,77.31469,Faridabad (फरीदाबाद)
28.897423,76.5824296,रोहतक (Rohtak)
29.3799,76.9709,पानीपत (Panipat)
29.4662369,77.6961699,Muzaffarnagar
30.1261,77.2798,Yamunanagar
31.6343083,74.8736788,ਅੰਮ੍ਰਿਤਸਰ (Amritsar)
32.7074,74.8513999,Jammu
34.1629318,77.5821542,Leh
19.0436513,-98.1981013,Heróica Puebla de Zaragoza
37.9379937,58.3856669,Aşgabat
41.8406342,60.0065056,Daşoğuz
39.1007241,63.5787761,Türkmenabat
37.6057005,61.8460675,Mary
4.9383821,6.2693498,Yenagoa
46.6365899,27.732707,Vaslui
32.6120897,44.0341406,(Karbala) ﺔﺳﺪﻘﻤﻟﺍ ﺀﻼﺑﺮﻛ
-28.0336425,148.578348,St George
-26.3960331,146.2404986,Charleville
40.1078249,67.8530369,Jizzax (Jizzakh)
40.2828032,69.6389657,Хуҷанд
-28.0709343,145.6860056,Cunnamulla
32.087758,34.8859846,פתח תקוה
48.5050253,32.2627186,Кіровоград
54.5100547,36.2597099,Калуга
40.1418147,65.3602839,Navoiy
12.0535331,-61.751805,St. George's
13.1018264,-59.618848,Bridgetown
-14.422778,-44.365556,Montalvânia
-19.9132749,-44.0840953,Contagem
-19.750833,-47.936666,Uberaba
-18.853333,-41.945,Governador Valadares
-15.4875,-44.361111,Januária
-17.857778,-41.506111,Teófilo Otoni
-21.7897833,-46.5603624,Poços de Caldas
-19.4767995,-42.5446917,Ipatinga
-16.735,-43.862222,Montes Claros
-19.968056,-44.198333,Betim
-20.4163875,-42.9088927,Ponte Nova
-19.9227318,-43.9450948,Belo Horizonte
-19.770278,-43.850556,Santa Luzia
-19.466111,-44.246944,Sete Lagoas
-20.138611,-44.883611,Divinopólis
-18.592222,-46.520834,Patos de Minas
-21.226111,-43.773334,Barbacena
-18.9188889,-48.276945,Uberlândia
50.9019131,15.7336557,Jelenia Góra
14.6035467,-61.0757593,Fort-de-France
-20.8799889,55.448137,Saint-Denis
31.9072265,35.006404,מודיעין-מכבים-רעות
40.760107,72.3670244,Andijon
6.1249126,81.1242563,Hambantota
27.5822384,89.8623207,Punakha
27.4797697,89.8989483,Wangdi Phodrang
27.501812,90.5067411,Tongsa
17.993412,-76.9509935,Spanish Town
6.2109194,10.6853777,Kumbo
5.9567976,10.1539435,Bamenda
-34.9213614,-57.9545515,La Plata
-23.8438495,151.2568723,Gladstone
-22.3851003,143.0391229,Winton
-20.7289496,139.4932055,Mount Isa
-20.7051873,140.5058305,Cloncurry
-17.6733266,141.0781827,Normanton
35.8553555,139.327389,飯能(Hanno)
35.9985691,139.08426,秩父市 (Chichibu)
36.7116531,67.105604,Mazâr-e Sharîf مازارِ شریف
-15.4723817,145.2526122,Cooktown
-18.0062892,-70.2454159,Tacna
33.4205927,43.307505,رمادي
44.773158,17.1949291,Banja Luka
31.9856666,44.923839,الديوانية
35.4693839,44.3953977,کەرکووک
31.3078736,45.2826616,السماوة
31.0440068,46.2575523,الناصرية
32.482245,44.4328131,Al Hillah
33.7437267,44.6495225,بعقوبة
29.1968758,54.3274219,نیریز
7.3252649,13.585942,Ngaoundéré
9.301103,13.3989478,Garoua
29.2721896,53.2215669,سروستان
29.1234996,54.0413275,استهبان
28.9366105,53.650995,فسا
28.7531947,54.5481459,داراب
37.2794292,-5.9225468,Dos Hermanas
37.3887565,-5.9947066,Sevilla
43.4655526,-80.5217698,Waterloo
13.1521864,32.6725113,Kosti كوستي
13.1833657,30.222559,Al-Ubayyid الأبيض
40.8090529,140.3870438,つがる(Tsugaru)
17.0126541,99.8150671,สุโขทัย
16.8718386,99.12637,ตาก
28.4643765,77.0297157,गुड़गाँव (Gurgaon)
18.0794011,-15.9780393,Nouakchott انواكشوط
13.4535144,-16.5750607,Banjul
12.5643513,-16.2744902,Ziguinchor
4.5769508,13.6851989,Bertoua
18.472114,-77.9217743,Montego Bay
38.9437758,121.5760667,大连市 Dàlián
19.902496,99.8387326,เชียงราย
20.4490789,99.8842143,တာချီလိတ်မြို့ (Tachileik)
37.9058363,69.7792851,Кулоб
37.8336885,68.7729047,Қурғонтеппа
39.9071607,68.9909322,Истаравшан (Istaravshan)
31.1592702,52.6553641,آباده
29.2340169,56.6056569,بافت
29.9283973,56.5717384,بردسیر
30.8134822,56.5672432,زرند
31.2676737,56.8069974,راور
-1.2428385,-78.628733,Ambato
-1.8166645,-79.5166741,Babahoyo
-2.166874,-79.8432254,Durán
0.9668153,-79.6523847,Esmeraldas
-2.2010072,-79.8818938,Guayaquil
0.3505225,-78.1179933,Ibarra
-0.9479102,-80.7218044,Manta
-2.1289136,-79.5935005,Milagro
-1.0255741,-79.4670004,Quevedo
-1.6726717,-78.6473548,Riobamba
-1.0529517,-80.4533134,Portoviejo
-0.2457286,-79.1597032,Santo Domingo de los Colorados
4.7434672,11.2250032,Bafia
14.8049629,-16.9243534,Thiès
14.3339653,-16.4042187,Fatick
14.1562682,-16.0698222,Kaolack
13.7709591,-13.6722726,Tambacounda
49.2319915,28.4679262,Вінниця
-25.2964298,-57.6468045,Asunción
19.4503469,-70.6905536,Santiago de los Caballeros
19.394647,-70.5261566,Moca
19.2222762,-70.5278696,La Vega
18.459823,-69.3029079,San Pedro de Macorís
18.4275592,-68.9751982,La Romana
18.6128126,-68.7120542,Higüey
18.7645664,-69.0400604,El Seibo
18.7746195,-69.2525902,Hato Mayor
19.3746624,-69.8496487,Nagua
19.2055608,-69.3351803,Samaná
19.7893977,-70.6940515,Puerto Plata
19.8503527,-71.6442018,Monte Cristi
19.5527502,-71.7041073,Dajabón
18.2101889,-71.1012325,Barahona
18.4533098,-70.7321605,Azua
18.2744242,-70.328413,Baní
18.4171566,-70.1073131,San Cristóbal
18.5454574,-70.5055718,San José de Ocoa
18.9378669,-70.4090938,Bonao
9.6400866,123.8569197,Tagbilaran
12.0755638,15.0247911,Kousséri
1.6105452,16.0513456,Ouésso
4.258773,15.7919411,Berbérati
37.9558123,23.7032129,Καλλιθέα
29.394644,71.6638747,Bahawalpur
44.6114503,33.5224182,Севастополь
29.5390395,71.6344196,Lodhran
30.0429823,72.3546455,Vihari
30.3022528,71.9278916,Khanewal
29.1474024,71.2639091,Ahmadpur East
28.417607,70.3036512,Rahīmyār Khān
49.4196404,26.9793793,Хмельницький
30.8782508,73.5998771,Renala Khurd
30.8091281,73.4493301,Okara
30.6686664,73.1090973,Sahiwal
30.6308602,72.8667114,Harappa
32.0652191,36.0903971,الزرقاء
49.5557994,25.5917286,Тернопіль
27.9507336,68.6356297,Shikarpur
5.0004493,8.3451958,Calabar
1.8650897,9.768665,Bata
52.033256,113.5006916,Чита
6.8670007,79.8848068,Kohuwala
27.5553304,68.21249,Larkana
28.2820696,68.4397596,Jacobabad
28.2449481,69.1814375,Kandhkot
34.6852991,135.8159841,奈良 (Nara)
45.1710452,18.0161306,Slavonski Brod
45.5371133,-73.4488786,Longueuil
7.8882251,98.3914686,ภูเก็ต
50.2598352,28.6692373,Житомир
44.945876,34.1074054,Симферополь
38.9174665,-6.3443977,Mérida
56.8665571,53.2094166,Ижевск
41.5464208,2.1087937,Sabadell
-6.8218981,37.6656941,Morogoro
45.7343472,7.3088547,Aosta
18.4895832,-71.8501138,Jimaní
19.5515319,-71.0774108,Mao
18.8065971,-71.2279542,San Juan de La Maguana
18.8751567,-71.7020829,Comendador
18.8100643,-69.7875354,Monte Plata
18.0391213,-71.7440615,Pedernales
-33.0381092,137.5801318,Whyalla
55.9966382,37.1990245,Зеленоград
-20.076723,30.8278401,Masvingo
25.4289814,68.284193,Jamshoro
26.4259705,67.8621206,Sehwan Sharif
26.7293289,67.7805814,Dadu
25.7673849,68.6587234,Tando Adam
25.4619907,68.7198264,Tando Allahyar
25.5206729,69.0172095,Mirpur Khas
-19.4616316,29.8205953,Gweru
-18.1900983,31.5455425,Marondera
-18.9746556,32.6704728,Mutare
30.915948,66.4631051,Chaman
36.7119156,4.0439212,Tizi Ouzou تيزي وزو
21.2002436,94.9089938,Nyaung U
53.909585,14.2511363,Świnoujście
42.3032758,-83.0285111,Windsor
55.821744,37.3404142,Красногорск
6.0215766,37.5551281,Ārba Minch
7.0538076,38.4801754,Awassa
31.3330181,73.4183387,Jaranwala
49.822118,19.0448936,Bielsko-Biała
50.0963409,18.5443907,Rybnik
50.1179845,18.9971783,Tychy
52.2285987,18.2527957,Konin
53.1493864,16.7390964,Piła
51.1348548,23.4815371,Chełm
50.7183958,23.2558211,Zamość
17.18475,-25.0644048,Ribeira Grande
32.2978711,72.3577443,Khushab
-16.3999054,-71.5370294,Arequipa
48.5688212,39.3154202,Луганськ
48.4694259,38.8038464,Алчевськ
30.0524035,70.6516579,Dera Ghazi Khan
30.0778083,71.188842,Muzaffargarh
-15.4915945,-70.132216,Juliaca
45.5540026,18.6897053,Osijek
44.7573468,19.2176354,Bijeljina
1.4953041,103.7550839,Johor Bahru
-22.8057872,-45.1908947,Guaratinguetá
41.4310511,75.9981676,Нарын
40.5331113,72.7963581,Ош
40.9326849,72.9981116,Жалалабат
42.4900118,78.3871577,Каракол
30.4704183,-8.8765701,Taroudant تارودانت
-4.3312167,20.5823285,Ilebo
11.8594145,-15.6022171,Bissau
-1.627156,13.5944913,Franceville
-23.3517164,43.6680578,Toliara
-25.0282564,46.9872775,Taolanaro
-12.2825361,49.2954455,Antsiranana
-15.7181293,46.317202,Mahajanga
14.5311054,121.0048893,Pasay
14.707415,120.9881934,Valenzuela
14.4820987,120.8998113,Cavite City
14.5568853,121.023532,Makati
14.8952963,-24.4969361,São Filipe
6.8776251,-6.4524555,Daloa
25.6770178,-100.3030019,Monterrey
49.8038191,30.1116924,Біла Церква
10.3231887,9.8412732,Bauchi
46.6551209,32.6131115,Херсон
-5.0202431,32.8097724,Tabora
-2.5196915,32.9014417,Mwanza
-3.6641891,33.4251144,Shinyanga
56.477334,53.8192957,Сарапул
-8.9084712,33.4694008,Mbeya
-3.3554739,37.3426044,Moshi
-3.3669557,36.6915518,Arusha
-5.0815735,39.1032237,Tanga
40.5400082,-3.6358494,Alcobendas
47.2495798,-122.4398746,Tacoma
-8.7488417,-63.8868218,Porto Velho
55.8070323,38.1774172,Старая Купавна
35.1755559,33.3638952,Λευκωσία (Nicosia)
-6.9689375,110.4231086,Semarang
38.0401144,125.7140086,해주시 (Haeju)
3.2549634,19.7751743,Gemena
48.3040963,38.0168102,Горлівка
48.2303208,38.1846919,Єнакієве
48.04467,37.9642,Макіївка
48.8522691,37.6058241,Слов'янськ
39.914996,127.5441846,함흥 (Hamhŭng)
40.6718139,129.1940775,Kimch'aek
49.3224985,-123.0715342,North Vancouver
41.7869218,129.7858793,Ch'ongjin
40.9594099,129.3203345,Kilju
39.2466055,125.8685712,평성시 (P'yong-song)
39.2011991,125.6913186,Sunan
40.1027521,124.3981121,신의주 (Sinŭiju)
45.3544007,36.4544183,Керчь
49.1323438,-123.0056851,Delta
34.1223715,72.4705383,Swabi
58.305467,48.336953,Котельнич
13.5248962,105.9604282,ស្ទឹងត្រែង
12.710475,104.8866196,ក្រុងកំពង់ធំ
13.5848704,102.9631201,សិរីសោភ័ណ
13.1020539,103.1970383,បាត់ដំបង
13.8021147,104.9765967,ត្បែងមានជ័យ
12.5315662,106.005542,ក្រចេះ
12.4615126,107.1913734,សែនមនោរម្យ
14.9870626,102.093247,นครราชสีมา
42.4661196,-2.4396676,Logroño
35.1563895,126.9013813,광주 (Gwangju)
37.4833331,126.6333307,인천 (Incheon)
35.8714381,128.6014509,대구 (Daegu)
36.3436711,127.4050533,대전광역시 (Daejeon)
37.4333312,127.1499935,성남 (Seongnam)
36.5634886,128.7260798,안동시 (Andong)
35.8377869,129.215273,경주 (Gyeongju)
